{"type": "FeatureCollection", "features": [{"type": "Feature", "geometry": {"type": "Point", "coordinates": [15.91352, 47.78709]}, "properties": {"name": "", "type": "Crashplace of Bomber", "label": "Puchberg am Schneeberg: Crashplace of Bomber 0 [internal-id]", "geonames_id": "NONE", "self_link": "/entities/bombers/detail/1"}}, {"type": "Feature", "geometry": {"type": "Point", "coordinates": [13.8, 47.85]}, "properties": {"name": "Dottie Mae", "type": "Crashplace of Bomber", "label": "Traunsee: Crashplace of Bomber 1 [internal-id]", "geonames_id": "NONE", "self_link": "/entities/bombers/detail/2"}}, {"type": "Feature", "geometry": {"type": "Point", "coordinates": [15.63333, 48.2]}, "properties": {"name": "", "type": "Crashplace of Bomber", "label": "St. P\u00f6lten: Crashplace of Bomber 2 [internal-id]", "geonames_id": "NONE", "self_link": "/entities/bombers/detail/3"}}, {"type": "Feature", "geometry": {"type": "Point", "coordinates": [15.81667, 47.63333]}, "properties": {"name": "", "type": "Crashplace of Bomber", "label": "Semmering: Crashplace of Bomber 3 [internal-id]", "geonames_id": "NONE", "self_link": "/entities/bombers/detail/4"}}, {"type": "Feature", "geometry": {"type": "Point", "coordinates": [17.28209, 46.97703]}, "properties": {"name": "Jackie", "type": "Crashplace of Bomber", "label": "S\u00fcmeg: Crashplace of Bomber 4 [internal-id]", "geonames_id": "NONE", "self_link": "/entities/bombers/detail/5"}}, {"type": "Feature", "geometry": {"type": "Point", "coordinates": [17.4674, 47.33004]}, "properties": {"name": "", "type": "Crashplace of Bomber", "label": "Papa: Crashplace of Bomber 5 [internal-id]", "geonames_id": "NONE", "self_link": "/entities/bombers/detail/6"}}, {"type": "Feature", "geometry": {"type": "Point", "coordinates": [16.25, 47.8]}, "properties": {"name": "", "type": "Crashplace of Bomber", "label": "Wr. Neustadt: Crashplace of Bomber 1063", "geonames_id": "NONE", "self_link": "/entities/bombers/detail/7"}}, {"type": "Feature", "geometry": {"type": "Point", "coordinates": [16.03425, 47.51062]}, "properties": {"name": "", "type": "Crashplace of Bomber", "label": "M\u00f6nichkirchen: Crashplace of Bomber 1092", "geonames_id": "NONE", "self_link": "/entities/bombers/detail/8"}}, {"type": "Feature", "geometry": {"type": "Point", "coordinates": [15.71011, 47.10559]}, "properties": {"name": "", "type": "Crashplace of Bomber", "label": "Gleisdorf: Crashplace of Bomber 1093", "geonames_id": "NONE", "self_link": "/entities/bombers/detail/9"}}, {"type": "Feature", "geometry": {"type": "Point", "coordinates": [16.25, 47.8]}, "properties": {"name": "", "type": "Crashplace of Bomber", "label": "Wr. Neustadt: Crashplace of Bomber 1094", "geonames_id": "NONE", "self_link": "/entities/bombers/detail/10"}}, {"type": "Feature", "geometry": {"type": "Point", "coordinates": [16.13333, 47.68333]}, "properties": {"name": "", "type": "Crashplace of Bomber", "label": "Seebenstein: Crashplace of Bomber 1095", "geonames_id": "NONE", "self_link": "/entities/bombers/detail/11"}}, {"type": "Feature", "geometry": {"type": "Point", "coordinates": [16.28333, 47.61667]}, "properties": {"name": "", "type": "Crashplace of Bomber", "label": "Wiesmath: Crashplace of Bomber 1099", "geonames_id": "NONE", "self_link": "/entities/bombers/detail/12"}}, {"type": "Feature", "geometry": {"type": "Point", "coordinates": [16.17784, 47.14256]}, "properties": {"name": "", "type": "Crashplace of Bomber", "label": "Bocksdorf: Crashplace of Bomber 1100", "geonames_id": "NONE", "self_link": "/entities/bombers/detail/13"}}, {"type": "Feature", "geometry": {"type": "Point", "coordinates": [16.13333, 47.68333]}, "properties": {"name": "", "type": "Crashplace of Bomber", "label": "Seebenstein: Crashplace of Bomber 1112", "geonames_id": "NONE", "self_link": "/entities/bombers/detail/14"}}, {"type": "Feature", "geometry": {"type": "Point", "coordinates": [16.25, 47.68333]}, "properties": {"name": "", "type": "Crashplace of Bomber", "label": "Klingenfurth: Crashplace of Bomber 1138", "geonames_id": "NONE", "self_link": "/entities/bombers/detail/15"}}, {"type": "Feature", "geometry": {"type": "Point", "coordinates": [16.10793, 47.08789]}, "properties": {"name": "", "type": "Crashplace of Bomber", "label": "Deutsch-Kaltenbrunn: Crashplace of Bomber 1139", "geonames_id": "NONE", "self_link": "/entities/bombers/detail/16"}}, {"type": "Feature", "geometry": {"type": "Point", "coordinates": [16.2, 47.0]}, "properties": {"name": "Lady be good", "type": "Crashplace of Bomber", "label": "Eltendorf: Crashplace of Bomber 1142", "geonames_id": "NONE", "self_link": "/entities/bombers/detail/17"}}, {"type": "Feature", "geometry": {"type": "Point", "coordinates": [16.37109, 47.80445]}, "properties": {"name": "", "type": "Crashplace of Bomber", "label": "P\u00f6ttsching: Crashplace of Bomber 1143", "geonames_id": "NONE", "self_link": "/entities/bombers/detail/18"}}, {"type": "Feature", "geometry": {"type": "Point", "coordinates": [11.50836, 47.00528]}, "properties": {"name": "Thunderbolt", "type": "Crashplace of Bomber", "label": "Brenner-Pass: Crashplace of Bomber 1520", "geonames_id": "NONE", "self_link": "/entities/bombers/detail/19"}}, {"type": "Feature", "geometry": {"type": "Point", "coordinates": [11.39454, 47.26266]}, "properties": {"name": "", "type": "Crashplace of Bomber", "label": "Innsbruck: Crashplace of Bomber 1527", "geonames_id": "NONE", "self_link": "/entities/bombers/detail/20"}}, {"type": "Feature", "geometry": {"type": "Point", "coordinates": [11.33982, 46.49067]}, "properties": {"name": "", "type": "Crashplace of Bomber", "label": "Bolzano: Crashplace of Bomber 1530", "geonames_id": "NONE", "self_link": "/entities/bombers/detail/21"}}, {"type": "Feature", "geometry": {"type": "Point", "coordinates": [8.80777, 53.07516]}, "properties": {"name": "Aristocrap", "type": "Crashplace of Bomber", "label": "Bremen: Crashplace of Bomber 1576", "geonames_id": "NONE", "self_link": "/entities/bombers/detail/22"}}, {"type": "Feature", "geometry": {"type": "Point", "coordinates": [16.44095, 47.30467]}, "properties": {"name": "", "type": "Crashplace of Bomber", "label": "Rechnitz: Crashplace of Bomber 1691", "geonames_id": "NONE", "self_link": "/entities/bombers/detail/23"}}, {"type": "Feature", "geometry": {"type": "Point", "coordinates": [16.25, 47.8]}, "properties": {"name": "", "type": "Crashplace of Bomber", "label": "Wr. Neustadt: Crashplace of Bomber 1692", "geonames_id": "NONE", "self_link": "/entities/bombers/detail/24"}}, {"type": "Feature", "geometry": {"type": "Point", "coordinates": [15.98278, 46.23056]}, "properties": {"name": "", "type": "Crashplace of Bomber", "label": "Bednja: Crashplace of Bomber 1693", "geonames_id": "NONE", "self_link": "/entities/bombers/detail/25"}}, {"type": "Feature", "geometry": {"type": "Point", "coordinates": [14.44241, 45.32673]}, "properties": {"name": "", "type": "Crashplace of Bomber", "label": "Rijeka: Crashplace of Bomber 1794", "geonames_id": "NONE", "self_link": "/entities/bombers/detail/26"}}, {"type": "Feature", "geometry": {"type": "Point", "coordinates": [14.50513, 46.05108]}, "properties": {"name": "", "type": "Crashplace of Bomber", "label": "Ljubljana: Crashplace of Bomber 1795", "geonames_id": "NONE", "self_link": "/entities/bombers/detail/27"}}, {"type": "Feature", "geometry": {"type": "Point", "coordinates": [15.98278, 46.23056]}, "properties": {"name": "", "type": "Crashplace of Bomber", "label": "Bednja: Crashplace of Bomber 1821", "geonames_id": "NONE", "self_link": "/entities/bombers/detail/28"}}, {"type": "Feature", "geometry": {"type": "Point", "coordinates": [11.6, 47.28333]}, "properties": {"name": "", "type": "Crashplace of Bomber", "label": "Wattens: Crashplace of Bomber 1840", "geonames_id": "NONE", "self_link": "/entities/bombers/detail/29"}}, {"type": "Feature", "geometry": {"type": "Point", "coordinates": [16.25, 47.8]}, "properties": {"name": "", "type": "Crashplace of Bomber", "label": "Wr. Neustadt: Crashplace of Bomber 2030", "geonames_id": "NONE", "self_link": "/entities/bombers/detail/30"}}, {"type": "Feature", "geometry": {"type": "Point", "coordinates": [16.25, 47.8]}, "properties": {"name": "", "type": "Crashplace of Bomber", "label": "Wr. Neustadt: Crashplace of Bomber 2031", "geonames_id": "NONE", "self_link": "/entities/bombers/detail/31"}}, {"type": "Feature", "geometry": {"type": "Point", "coordinates": [14.74503, 47.60639]}, "properties": {"name": "", "type": "Crashplace of Bomber", "label": "Hieflau: Crashplace of Bomber 2566", "geonames_id": "NONE", "self_link": "/entities/bombers/detail/32"}}, {"type": "Feature", "geometry": {"type": "Point", "coordinates": [12.98902, 48.04492]}, "properties": {"name": "", "type": "Crashplace of Bomber", "label": "Moosdorf: Crashplace of Bomber 2576", "geonames_id": "NONE", "self_link": "/entities/bombers/detail/33"}}, {"type": "Feature", "geometry": {"type": "Point", "coordinates": [13.43122, 48.5665]}, "properties": {"name": "", "type": "Crashplace of Bomber", "label": "Passau: Crashplace of Bomber 2579", "geonames_id": "NONE", "self_link": "/entities/bombers/detail/34"}}, {"type": "Feature", "geometry": {"type": "Point", "coordinates": [15.4, 47.21667]}, "properties": {"name": "", "type": "Crashplace of Bomber", "label": "Semriach Umgebung: Crashplace of Bomber 2581", "geonames_id": "NONE", "self_link": "/entities/bombers/detail/35"}}, {"type": "Feature", "geometry": {"type": "Point", "coordinates": [15.64667, 46.55472]}, "properties": {"name": "", "type": "Crashplace of Bomber", "label": "Maribor: Crashplace of Bomber 2582", "geonames_id": "NONE", "self_link": "/entities/bombers/detail/36"}}, {"type": "Feature", "geometry": {"type": "Point", "coordinates": [14.03333, 48.16667]}, "properties": {"name": "", "type": "Crashplace of Bomber", "label": "Wels: Crashplace of Bomber 2583", "geonames_id": "NONE", "self_link": "/entities/bombers/detail/37"}}, {"type": "Feature", "geometry": {"type": "Point", "coordinates": [14.51667, 48.16667]}, "properties": {"name": "", "type": "Crashplace of Bomber", "label": "St. Valentin: Crashplace of Bomber 2584", "geonames_id": "NONE", "self_link": "/entities/bombers/detail/38"}}, {"type": "Feature", "geometry": {"type": "Point", "coordinates": [14.87394, 47.99544]}, "properties": {"name": "", "type": "Crashplace of Bomber", "label": "St. Leonhard am Wald: Crashplace of Bomber 2586", "geonames_id": "NONE", "self_link": "/entities/bombers/detail/39"}}, {"type": "Feature", "geometry": {"type": "Point", "coordinates": [14.11667, 48.18333]}, "properties": {"name": "", "type": "Crashplace of Bomber", "label": "Marchtrenk: Crashplace of Bomber 2587", "geonames_id": "NONE", "self_link": "/entities/bombers/detail/40"}}, {"type": "Feature", "geometry": {"type": "Point", "coordinates": [13.53953, 47.91646]}, "properties": {"name": "", "type": "Crashplace of Bomber", "label": "Attersee: Crashplace of Bomber 2589", "geonames_id": "NONE", "self_link": "/entities/bombers/detail/41"}}, {"type": "Feature", "geometry": {"type": "Point", "coordinates": [15.22222, 46.81528]}, "properties": {"name": "", "type": "Crashplace of Bomber", "label": "Deutschlandsberg: Crashplace of Bomber 2590", "geonames_id": "NONE", "self_link": "/entities/bombers/detail/42"}}, {"type": "Feature", "geometry": {"type": "Point", "coordinates": [14.81667, 47.21667]}, "properties": {"name": "", "type": "Crashplace of Bomber", "label": "Knittelfeld: Crashplace of Bomber 2591", "geonames_id": "NONE", "self_link": "/entities/bombers/detail/43"}}, null, {"type": "Feature", "geometry": {"type": "Point", "coordinates": [14.21667, 46.98056]}, "properties": {"name": "", "type": "Crashplace of Bomber", "label": "Metnitz: Crashplace of Bomber 2594", "geonames_id": "NONE", "self_link": "/entities/bombers/detail/45"}}, {"type": "Feature", "geometry": {"type": "Point", "coordinates": [12.848, 47.42681]}, "properties": {"name": "", "type": "Crashplace of Bomber", "label": "Saalfelden: Crashplace of Bomber 2595", "geonames_id": "NONE", "self_link": "/entities/bombers/detail/46"}}, {"type": "Feature", "geometry": {"type": "Point", "coordinates": [13.81102, 47.12808]}, "properties": {"name": "", "type": "Crashplace of Bomber", "label": "Tamsweg: Crashplace of Bomber 2597", "geonames_id": "NONE", "self_link": "/entities/bombers/detail/47"}}, {"type": "Feature", "geometry": {"type": "Point", "coordinates": [15.83333, 47.3]}, "properties": {"name": "", "type": "Crashplace of Bomber", "label": "P\u00f6llau: Crashplace of Bomber 2613", "geonames_id": "NONE", "self_link": "/entities/bombers/detail/48"}}, {"type": "Feature", "geometry": {"type": "Point", "coordinates": [13.53953, 47.91646]}, "properties": {"name": "Lit Jo", "type": "Crashplace of Bomber", "label": "Attersee: Crashplace of Bomber 2614", "geonames_id": "NONE", "self_link": "/entities/bombers/detail/49"}}, {"type": "Feature", "geometry": {"type": "Point", "coordinates": [12.65222, 47.92418]}, "properties": {"name": "", "type": "Crashplace of Bomber", "label": "Kammer (Traunstein): Crashplace of Bomber 2617", "geonames_id": "NONE", "self_link": "/entities/bombers/detail/50"}}, {"type": "Feature", "geometry": {"type": "Point", "coordinates": [13.04399, 47.79941]}, "properties": {"name": "", "type": "Crashplace of Bomber", "label": "Salzburg: Crashplace of Bomber 2618", "geonames_id": "NONE", "self_link": "/entities/bombers/detail/51"}}, {"type": "Feature", "geometry": {"type": "Point", "coordinates": [13.41667, 47.98333]}, "properties": {"name": "", "type": "Crashplace of Bomber", "label": "Frankenmarkt: Crashplace of Bomber 2619", "geonames_id": "NONE", "self_link": "/entities/bombers/detail/52"}}, {"type": "Feature", "geometry": {"type": "Point", "coordinates": [14.03333, 48.16667]}, "properties": {"name": "", "type": "Crashplace of Bomber", "label": "Wels: Crashplace of Bomber 2620", "geonames_id": "NONE", "self_link": "/entities/bombers/detail/53"}}, null, {"type": "Feature", "geometry": {"type": "Point", "coordinates": [14.42127, 48.04274]}, "properties": {"name": "", "type": "Crashplace of Bomber", "label": "Steyr: Crashplace of Bomber 2622", "geonames_id": "NONE", "self_link": "/entities/bombers/detail/55"}}, {"type": "Feature", "geometry": {"type": "Point", "coordinates": [14.50453, 48.51103]}, "properties": {"name": "", "type": "Crashplace of Bomber", "label": "Freistadt: Crashplace of Bomber 2627", "geonames_id": "NONE", "self_link": "/entities/bombers/detail/56"}}, {"type": "Feature", "geometry": {"type": "Point", "coordinates": [13.3, 47.8]}, "properties": {"name": "", "type": "Crashplace of Bomber", "label": "Fuschl am See: Crashplace of Bomber 2632", "geonames_id": "NONE", "self_link": "/entities/bombers/detail/57"}}, {"type": "Feature", "geometry": {"type": "Point", "coordinates": [14.03333, 48.16667]}, "properties": {"name": "", "type": "Crashplace of Bomber", "label": "Wels: Crashplace of Bomber 2634", "geonames_id": "NONE", "self_link": "/entities/bombers/detail/58"}}, {"type": "Feature", "geometry": {"type": "Point", "coordinates": [14.47612, 48.21346]}, "properties": {"name": "", "type": "Crashplace of Bomber", "label": "Enns: Crashplace of Bomber 2635", "geonames_id": "NONE", "self_link": "/entities/bombers/detail/59"}}, {"type": "Feature", "geometry": {"type": "Point", "coordinates": [15.96667, 47.28333]}, "properties": {"name": "Stinky the B.T.O.", "type": "Crashplace of Bomber", "label": "Hartberg: Crashplace of Bomber 2636", "geonames_id": "NONE", "self_link": "/entities/bombers/detail/60"}}, {"type": "Feature", "geometry": {"type": "Point", "coordinates": [13.77505, 48.05537]}, "properties": {"name": "", "type": "Crashplace of Bomber", "label": "Schwanenstadt: Crashplace of Bomber 2685", "geonames_id": "NONE", "self_link": "/entities/bombers/detail/61"}}, {"type": "Feature", "geometry": {"type": "Point", "coordinates": [13.65, 48.01667]}, "properties": {"name": "", "type": "Crashplace of Bomber", "label": "V\u00f6cklabruck: Crashplace of Bomber 2686", "geonames_id": "NONE", "self_link": "/entities/bombers/detail/62"}}, {"type": "Feature", "geometry": {"type": "Point", "coordinates": [15.64667, 46.55472]}, "properties": {"name": "", "type": "Crashplace of Bomber", "label": "Maribor: Crashplace of Bomber 2687", "geonames_id": "NONE", "self_link": "/entities/bombers/detail/63"}}, {"type": "Feature", "geometry": {"type": "Point", "coordinates": [14.42127, 48.04274]}, "properties": {"name": "", "type": "Crashplace of Bomber", "label": "Steyr: Crashplace of Bomber 2702", "geonames_id": "NONE", "self_link": "/entities/bombers/detail/64"}}, {"type": "Feature", "geometry": {"type": "Point", "coordinates": [14.32755, 47.72223]}, "properties": {"name": "", "type": "Crashplace of Bomber", "label": "Windischgarsten: Crashplace of Bomber 2703", "geonames_id": "NONE", "self_link": "/entities/bombers/detail/65"}}, {"type": "Feature", "geometry": {"type": "Point", "coordinates": [12.83139, 48.16925]}, "properties": {"name": "", "type": "Crashplace of Bomber", "label": "Burghausen: Crashplace of Bomber 2704", "geonames_id": "NONE", "self_link": "/entities/bombers/detail/66"}}, {"type": "Feature", "geometry": {"type": "Point", "coordinates": [12.10161, 49.01513]}, "properties": {"name": "", "type": "Crashplace of Bomber", "label": "Regensburg: Crashplace of Bomber 2707", "geonames_id": "NONE", "self_link": "/entities/bombers/detail/67"}}, {"type": "Feature", "geometry": {"type": "Point", "coordinates": [14.03333, 48.16667]}, "properties": {"name": "", "type": "Crashplace of Bomber", "label": "Wels: Crashplace of Bomber 2708", "geonames_id": "NONE", "self_link": "/entities/bombers/detail/68"}}, {"type": "Feature", "geometry": {"type": "Point", "coordinates": [14.59139, 46.48841]}, "properties": {"name": "", "type": "Crashplace of Bomber", "label": "Bad Eisenkappel: Crashplace of Bomber 2709", "geonames_id": "NONE", "self_link": "/entities/bombers/detail/69"}}, {"type": "Feature", "geometry": {"type": "Point", "coordinates": [13.39906, 47.29204]}, "properties": {"name": "", "type": "Crashplace of Bomber", "label": "Flachau: Crashplace of Bomber 2710", "geonames_id": "NONE", "self_link": "/entities/bombers/detail/70"}}, {"type": "Feature", "geometry": {"type": "Point", "coordinates": [15.68333, 47.35]}, "properties": {"name": "", "type": "Crashplace of Bomber", "label": "Birkfeld: Crashplace of Bomber 2712", "geonames_id": "NONE", "self_link": "/entities/bombers/detail/71"}}, {"type": "Feature", "geometry": {"type": "Point", "coordinates": [14.11667, 48.18333]}, "properties": {"name": "", "type": "Crashplace of Bomber", "label": "Marchtrenk: Crashplace of Bomber 2720", "geonames_id": "NONE", "self_link": "/entities/bombers/detail/72"}}, {"type": "Feature", "geometry": {"type": "Point", "coordinates": [13.6058, 47.4753]}, "properties": {"name": "", "type": "Crashplace of Bomber", "label": "Dachsteinmassiv: Crashplace of Bomber 2721", "geonames_id": "NONE", "self_link": "/entities/bombers/detail/73"}}, {"type": "Feature", "geometry": {"type": "Point", "coordinates": [16.3765, 47.61548]}, "properties": {"name": "", "type": "Crashplace of Bomber", "label": "Oberpetersdorf: Crashplace of Bomber 2806", "geonames_id": "NONE", "self_link": "/entities/bombers/detail/74"}}, {"type": "Feature", "geometry": {"type": "Point", "coordinates": [19.03411, 43.12792]}, "properties": {"name": "", "type": "Crashplace of Bomber", "label": "Durmitor: Crashplace of Bomber 2832", "geonames_id": "NONE", "self_link": "/entities/bombers/detail/75"}}, {"type": "Feature", "geometry": {"type": "Point", "coordinates": [15.65663, 48.66274]}, "properties": {"name": "", "type": "Crashplace of Bomber", "label": "Horn: Crashplace of Bomber 3155", "geonames_id": "NONE", "self_link": "/entities/bombers/detail/76"}}, {"type": "Feature", "geometry": {"type": "Point", "coordinates": [15.53836, 46.78161]}, "properties": {"name": "Who Nose", "type": "Crashplace of Bomber", "label": "Leibnitz: Crashplace of Bomber 3160", "geonames_id": "NONE", "self_link": "/entities/bombers/detail/77"}}, {"type": "Feature", "geometry": {"type": "Point", "coordinates": [16.43389, 46.38444]}, "properties": {"name": "", "type": "Crashplace of Bomber", "label": "Cakovec (Czaktornya): Crashplace of Bomber 3161", "geonames_id": "NONE", "self_link": "/entities/bombers/detail/78"}}, {"type": "Feature", "geometry": {"type": "Point", "coordinates": [15.4, 47.21667]}, "properties": {"name": "", "type": "Crashplace of Bomber", "label": "Semriach: Crashplace of Bomber 3174", "geonames_id": "NONE", "self_link": "/entities/bombers/detail/79"}}, {"type": "Feature", "geometry": {"type": "Point", "coordinates": [11.2547, 48.17904]}, "properties": {"name": "", "type": "Crashplace of Bomber", "label": "F\u00fcrstenfeldbruck: Crashplace of Bomber 3178", "geonames_id": "NONE", "self_link": "/entities/bombers/detail/80"}}, null, null, {"type": "Feature", "geometry": {"type": "Point", "coordinates": [13.87453, 48.09276]}, "properties": {"name": "Leaky Tub", "type": "Crashplace of Bomber", "label": "Lambach: Crashplace of Bomber 3206", "geonames_id": "NONE", "self_link": "/entities/bombers/detail/83"}}, {"type": "Feature", "geometry": {"type": "Point", "coordinates": [14.03333, 48.16667]}, "properties": {"name": "", "type": "Crashplace of Bomber", "label": "Wels: Crashplace of Bomber 3208", "geonames_id": "NONE", "self_link": "/entities/bombers/detail/84"}}, {"type": "Feature", "geometry": {"type": "Point", "coordinates": [14.66409, 47.85717]}, "properties": {"name": "", "type": "Crashplace of Bomber", "label": "Weyer: Crashplace of Bomber 3211", "geonames_id": "NONE", "self_link": "/entities/bombers/detail/85"}}, {"type": "Feature", "geometry": {"type": "Point", "coordinates": [16.37208, 48.20849]}, "properties": {"name": "", "type": "Crashplace of Bomber", "label": "Wien: Crashplace of Bomber 3255", "geonames_id": "NONE", "self_link": "/entities/bombers/detail/86"}}, {"type": "Feature", "geometry": {"type": "Point", "coordinates": [14.30194, 46.52694]}, "properties": {"name": "Paper Doll", "type": "Crashplace of Bomber", "label": "Ferlach: Crashplace of Bomber 3256", "geonames_id": "NONE", "self_link": "/entities/bombers/detail/87"}}, {"type": "Feature", "geometry": {"type": "Point", "coordinates": [14.0413, 46.61301]}, "properties": {"name": "", "type": "Crashplace of Bomber", "label": "Velden: Crashplace of Bomber 3258", "geonames_id": "NONE", "self_link": "/entities/bombers/detail/88"}}, {"type": "Feature", "geometry": {"type": "Point", "coordinates": [15.71011, 47.10559]}, "properties": {"name": "", "type": "Crashplace of Bomber", "label": "Gleisdorf: Crashplace of Bomber 3260", "geonames_id": "NONE", "self_link": "/entities/bombers/detail/89"}}, {"type": "Feature", "geometry": {"type": "Point", "coordinates": [15.26044, 46.23092]}, "properties": {"name": "", "type": "Crashplace of Bomber", "label": "Celje: Crashplace of Bomber 3287", "geonames_id": "NONE", "self_link": "/entities/bombers/detail/90"}}, {"type": "Feature", "geometry": {"type": "Point", "coordinates": [15.97798, 45.81444]}, "properties": {"name": "", "type": "Crashplace of Bomber", "label": "Zagreb: Crashplace of Bomber 3288", "geonames_id": "NONE", "self_link": "/entities/bombers/detail/91"}}, null, {"type": "Feature", "geometry": {"type": "Point", "coordinates": [15.61667, 47.21667]}, "properties": {"name": "", "type": "Crashplace of Bomber", "label": "Weiz n\u00f6rdlich: Crashplace of Bomber 3301", "geonames_id": "NONE", "self_link": "/entities/bombers/detail/93"}}, {"type": "Feature", "geometry": {"type": "Point", "coordinates": [16.25, 47.8]}, "properties": {"name": "", "type": "Crashplace of Bomber", "label": "Wr. Neustadt: Crashplace of Bomber 3312", "geonames_id": "NONE", "self_link": "/entities/bombers/detail/94"}}, {"type": "Feature", "geometry": {"type": "Point", "coordinates": [16.37208, 48.20849]}, "properties": {"name": "", "type": "Crashplace of Bomber", "label": "Wien: Crashplace of Bomber 3360", "geonames_id": "NONE", "self_link": "/entities/bombers/detail/95"}}, {"type": "Feature", "geometry": {"type": "Point", "coordinates": [15.22222, 46.81528]}, "properties": {"name": "", "type": "Crashplace of Bomber", "label": "Deutschlandsberg: Crashplace of Bomber 3363", "geonames_id": "NONE", "self_link": "/entities/bombers/detail/96"}}, {"type": "Feature", "geometry": {"type": "Point", "coordinates": [15.16886, 45.80397]}, "properties": {"name": "", "type": "Crashplace of Bomber", "label": "Novo Mesto: Crashplace of Bomber 3365", "geonames_id": "NONE", "self_link": "/entities/bombers/detail/97"}}, {"type": "Feature", "geometry": {"type": "Point", "coordinates": [13.79933, 47.91839]}, "properties": {"name": "", "type": "Crashplace of Bomber", "label": "Gmunden: Crashplace of Bomber 3366", "geonames_id": "NONE", "self_link": "/entities/bombers/detail/98"}}, {"type": "Feature", "geometry": {"type": "Point", "coordinates": [14.97333, 46.78833]}, "properties": {"name": "", "type": "Crashplace of Bomber", "label": "Koralpe: Crashplace of Bomber 3368", "geonames_id": "NONE", "self_link": "/entities/bombers/detail/99"}}, {"type": "Feature", "geometry": {"type": "Point", "coordinates": [9.47554, 47.65689]}, "properties": {"name": "", "type": "Crashplace of Bomber", "label": "Friedrichshafen: Crashplace of Bomber 3406", "geonames_id": "NONE", "self_link": "/entities/bombers/detail/100"}}, {"type": "Feature", "geometry": {"type": "Point", "coordinates": [8.01427, 47.00016]}, "properties": {"name": "", "type": "Crashplace of Bomber", "label": "Schweiz: Crashplace of Bomber 3407", "geonames_id": "NONE", "self_link": "/entities/bombers/detail/101"}}, {"type": "Feature", "geometry": {"type": "Point", "coordinates": [14.50513, 46.05108]}, "properties": {"name": "", "type": "Crashplace of Bomber", "label": "Ljubljana: Crashplace of Bomber 3464", "geonames_id": "NONE", "self_link": "/entities/bombers/detail/102"}}, {"type": "Feature", "geometry": {"type": "Point", "coordinates": [15.16886, 45.80397]}, "properties": {"name": "", "type": "Crashplace of Bomber", "label": "Novo Mesto: Crashplace of Bomber 3465", "geonames_id": "NONE", "self_link": "/entities/bombers/detail/103"}}, {"type": "Feature", "geometry": {"type": "Point", "coordinates": [15.54109, 46.12153]}, "properties": {"name": "Dorothy K", "type": "Crashplace of Bomber", "label": "Doblezice: Crashplace of Bomber 3466", "geonames_id": "NONE", "self_link": "/entities/bombers/detail/104"}}, {"type": "Feature", "geometry": {"type": "Point", "coordinates": [15.59111, 45.90333]}, "properties": {"name": "", "type": "Crashplace of Bomber", "label": "Bre\u017eice: Crashplace of Bomber 3467", "geonames_id": "NONE", "self_link": "/entities/bombers/detail/105"}}, {"type": "Feature", "geometry": {"type": "Point", "coordinates": [14.84417, 46.84056]}, "properties": {"name": "", "type": "Crashplace of Bomber", "label": "Wolfsberg: Crashplace of Bomber 3471", "geonames_id": "NONE", "self_link": "/entities/bombers/detail/106"}}, {"type": "Feature", "geometry": {"type": "Point", "coordinates": [14.66667, 47.16667]}, "properties": {"name": "", "type": "Crashplace of Bomber", "label": "Judenburg: Crashplace of Bomber 3578", "geonames_id": "NONE", "self_link": "/entities/bombers/detail/107"}}, {"type": "Feature", "geometry": {"type": "Point", "coordinates": [15.24722, 46.68667]}, "properties": {"name": "", "type": "Crashplace of Bomber", "label": "Eibiswald: Crashplace of Bomber 3582", "geonames_id": "NONE", "self_link": "/entities/bombers/detail/108"}}, {"type": "Feature", "geometry": {"type": "Point", "coordinates": [14.25819, 47.88723]}, "properties": {"name": "", "type": "Crashplace of Bomber", "label": "Molln: Crashplace of Bomber 3583", "geonames_id": "NONE", "self_link": "/entities/bombers/detail/109"}}, {"type": "Feature", "geometry": {"type": "Point", "coordinates": [14.77361, 47.96004]}, "properties": {"name": "", "type": "Crashplace of Bomber", "label": "Waidhofen an der Ybbs: Crashplace of Bomber 3586", "geonames_id": "NONE", "self_link": "/entities/bombers/detail/110"}}, {"type": "Feature", "geometry": {"type": "Point", "coordinates": [18.23333, 46.08333]}, "properties": {"name": "", "type": "Crashplace of Bomber", "label": "Pecs: Crashplace of Bomber 3638", "geonames_id": "NONE", "self_link": "/entities/bombers/detail/111"}}, {"type": "Feature", "geometry": {"type": "Point", "coordinates": [13.5, 47.15]}, "properties": {"name": "The Citadel", "type": "Crashplace of Bomber", "label": "Zederhaus: Crashplace of Bomber 3693", "geonames_id": "NONE", "self_link": "/entities/bombers/detail/112"}}, {"type": "Feature", "geometry": {"type": "Point", "coordinates": [14.48333, 47.48333]}, "properties": {"name": "", "type": "Crashplace of Bomber", "label": "Trieben: Crashplace of Bomber 3694", "geonames_id": "NONE", "self_link": "/entities/bombers/detail/113"}}, {"type": "Feature", "geometry": {"type": "Point", "coordinates": [14.55, 47.88333]}, "properties": {"name": "", "type": "Crashplace of Bomber", "label": "Gro\u00dframing: Crashplace of Bomber 3707", "geonames_id": "NONE", "self_link": "/entities/bombers/detail/114"}}, {"type": "Feature", "geometry": {"type": "Point", "coordinates": [14.87556, 46.70056]}, "properties": {"name": "", "type": "Crashplace of Bomber", "label": "Sankt Paul im Lavanttal: Crashplace of Bomber 3887", "geonames_id": "NONE", "self_link": "/entities/bombers/detail/115"}}, {"type": "Feature", "geometry": {"type": "Point", "coordinates": [14.37836, 48.20568]}, "properties": {"name": "", "type": "Crashplace of Bomber", "label": "Sankt Florian: Crashplace of Bomber 3888", "geonames_id": "NONE", "self_link": "/entities/bombers/detail/116"}}, {"type": "Feature", "geometry": {"type": "Point", "coordinates": [14.32755, 47.72223]}, "properties": {"name": "", "type": "Crashplace of Bomber", "label": "Windischgarsten: Crashplace of Bomber 3889", "geonames_id": "NONE", "self_link": "/entities/bombers/detail/117"}}, {"type": "Feature", "geometry": {"type": "Point", "coordinates": [15.81667, 47.63333]}, "properties": {"name": "", "type": "Crashplace of Bomber", "label": "Semmering: Crashplace of Bomber 3910", "geonames_id": "NONE", "self_link": "/entities/bombers/detail/118"}}, {"type": "Feature", "geometry": {"type": "Point", "coordinates": [16.84889, 45.89861]}, "properties": {"name": "", "type": "Crashplace of Bomber", "label": "Bjelovar: Crashplace of Bomber 3911", "geonames_id": "NONE", "self_link": "/entities/bombers/detail/119"}}, null, {"type": "Feature", "geometry": {"type": "Point", "coordinates": [17.4674, 47.33004]}, "properties": {"name": "Rebel Girl", "type": "Crashplace of Bomber", "label": "Papa: Crashplace of Bomber 3913", "geonames_id": "NONE", "self_link": "/entities/bombers/detail/121"}}, {"type": "Feature", "geometry": {"type": "Point", "coordinates": [19.03991, 47.49801]}, "properties": {"name": "", "type": "Crashplace of Bomber", "label": "Budapest: Crashplace of Bomber 3914", "geonames_id": "NONE", "self_link": "/entities/bombers/detail/122"}}, {"type": "Feature", "geometry": {"type": "Point", "coordinates": [20.14824, 46.253]}, "properties": {"name": "Stand By", "type": "Crashplace of Bomber", "label": "Szeged: Crashplace of Bomber 3915", "geonames_id": "NONE", "self_link": "/entities/bombers/detail/123"}}, {"type": "Feature", "geometry": {"type": "Point", "coordinates": [17.4674, 47.33004]}, "properties": {"name": "", "type": "Crashplace of Bomber", "label": "Papa: Crashplace of Bomber 3916", "geonames_id": "NONE", "self_link": "/entities/bombers/detail/124"}}, {"type": "Feature", "geometry": {"type": "Point", "coordinates": [17.63512, 47.68333]}, "properties": {"name": "", "type": "Crashplace of Bomber", "label": "Gy\u00f6r: Crashplace of Bomber 3917", "geonames_id": "NONE", "self_link": "/entities/bombers/detail/125"}}, {"type": "Feature", "geometry": {"type": "Point", "coordinates": [15.97798, 45.81444]}, "properties": {"name": "", "type": "Crashplace of Bomber", "label": "Zagreb: Crashplace of Bomber 3919", "geonames_id": "NONE", "self_link": "/entities/bombers/detail/126"}}, {"type": "Feature", "geometry": {"type": "Point", "coordinates": [16.21359, 47.96533]}, "properties": {"name": "Baby Dumbling", "type": "Crashplace of Bomber", "label": "Bad V\u00f6slau: Crashplace of Bomber 3920", "geonames_id": "NONE", "self_link": "/entities/bombers/detail/127"}}, {"type": "Feature", "geometry": {"type": "Point", "coordinates": [16.46267, 48.1099]}, "properties": {"name": "", "type": "Crashplace of Bomber", "label": "Zw\u00f6lfaxing: Crashplace of Bomber 3955", "geonames_id": "NONE", "self_link": "/entities/bombers/detail/128"}}, {"type": "Feature", "geometry": {"type": "Point", "coordinates": [14.03333, 48.16667]}, "properties": {"name": "", "type": "Crashplace of Bomber", "label": "Wels: Crashplace of Bomber 3956", "geonames_id": "NONE", "self_link": "/entities/bombers/detail/129"}}, {"type": "Feature", "geometry": {"type": "Point", "coordinates": [18.94686, 46.03666]}, "properties": {"name": "", "type": "Crashplace of Bomber", "label": "Csatalja: Crashplace of Bomber 3962", "geonames_id": "NONE", "self_link": "/entities/bombers/detail/130"}}, {"type": "Feature", "geometry": {"type": "Point", "coordinates": [16.08333, 47.55]}, "properties": {"name": "", "type": "Crashplace of Bomber", "label": "Aspang: Crashplace of Bomber 3963", "geonames_id": "NONE", "self_link": "/entities/bombers/detail/131"}}, {"type": "Feature", "geometry": {"type": "Point", "coordinates": [20.14824, 46.253]}, "properties": {"name": "", "type": "Crashplace of Bomber", "label": "Szeged: Crashplace of Bomber 3973", "geonames_id": "NONE", "self_link": "/entities/bombers/detail/132"}}, {"type": "Feature", "geometry": {"type": "Point", "coordinates": [19.03991, 47.49801]}, "properties": {"name": "Spirit of Hollywood", "type": "Crashplace of Bomber", "label": "Budapest Umgebung: Crashplace of Bomber 3974", "geonames_id": "NONE", "self_link": "/entities/bombers/detail/133"}}, {"type": "Feature", "geometry": {"type": "Point", "coordinates": [17.21667, 43.44667]}, "properties": {"name": "", "type": "Crashplace of Bomber", "label": "Imotski: Crashplace of Bomber 3975", "geonames_id": "NONE", "self_link": "/entities/bombers/detail/134"}}, {"type": "Feature", "geometry": {"type": "Point", "coordinates": [17.21667, 43.44667]}, "properties": {"name": "", "type": "Crashplace of Bomber", "label": "Imotski: Crashplace of Bomber 3976", "geonames_id": "NONE", "self_link": "/entities/bombers/detail/135"}}, {"type": "Feature", "geometry": {"type": "Point", "coordinates": [16.25, 47.8]}, "properties": {"name": "", "type": "Crashplace of Bomber", "label": "Wr. Neustadt: Crashplace of Bomber 3980", "geonames_id": "NONE", "self_link": "/entities/bombers/detail/136"}}, null, {"type": "Feature", "geometry": {"type": "Point", "coordinates": [14.32755, 47.72223]}, "properties": {"name": "", "type": "Crashplace of Bomber", "label": "Windischgarsten: Crashplace of Bomber 4024", "geonames_id": "NONE", "self_link": "/entities/bombers/detail/138"}}, {"type": "Feature", "geometry": {"type": "Point", "coordinates": [14.32755, 47.72223]}, "properties": {"name": "", "type": "Crashplace of Bomber", "label": "Windischgarsten: Crashplace of Bomber 4025", "geonames_id": "NONE", "self_link": "/entities/bombers/detail/139"}}, {"type": "Feature", "geometry": {"type": "Point", "coordinates": [16.15167, 43.045]}, "properties": {"name": "Dragon Lady 2", "type": "Crashplace of Bomber", "label": "Vis: Crashplace of Bomber 4030", "geonames_id": "NONE", "self_link": "/entities/bombers/detail/140"}}, {"type": "Feature", "geometry": {"type": "Point", "coordinates": [16.2, 47.45]}, "properties": {"name": "", "type": "Crashplace of Bomber", "label": "Hochneukirchen: Crashplace of Bomber 4034", "geonames_id": "NONE", "self_link": "/entities/bombers/detail/141"}}, {"type": "Feature", "geometry": {"type": "Point", "coordinates": [25.0, 46.0]}, "properties": {"name": "Annabelle", "type": "Crashplace of Bomber", "label": "Rum\u00e4nien: Crashplace of Bomber 4035", "geonames_id": "NONE", "self_link": "/entities/bombers/detail/142"}}, {"type": "Feature", "geometry": {"type": "Point", "coordinates": [16.52327, 47.84565]}, "properties": {"name": "", "type": "Crashplace of Bomber", "label": "Eisenstadt: Crashplace of Bomber 4037", "geonames_id": "NONE", "self_link": "/entities/bombers/detail/143"}}, {"type": "Feature", "geometry": {"type": "Point", "coordinates": [16.44095, 47.30467]}, "properties": {"name": "", "type": "Crashplace of Bomber", "label": "Rechnitz: Crashplace of Bomber 4038", "geonames_id": "NONE", "self_link": "/entities/bombers/detail/144"}}, {"type": "Feature", "geometry": {"type": "Point", "coordinates": [19.03991, 47.49801]}, "properties": {"name": "", "type": "Crashplace of Bomber", "label": "Budapest: Crashplace of Bomber 4040", "geonames_id": "NONE", "self_link": "/entities/bombers/detail/145"}}, {"type": "Feature", "geometry": {"type": "Point", "coordinates": [16.25, 47.8]}, "properties": {"name": "", "type": "Crashplace of Bomber", "label": "Wr. Neustadt: Crashplace of Bomber 4041", "geonames_id": "NONE", "self_link": "/entities/bombers/detail/146"}}, {"type": "Feature", "geometry": {"type": "Point", "coordinates": [18.94478, 47.16095]}, "properties": {"name": "", "type": "Crashplace of Bomber", "label": "R\u00e1ckeve: Crashplace of Bomber 4075", "geonames_id": "NONE", "self_link": "/entities/bombers/detail/147"}}, null, {"type": "Feature", "geometry": {"type": "Point", "coordinates": [16.21359, 47.96533]}, "properties": {"name": "", "type": "Crashplace of Bomber", "label": "Bad V\u00f6slau: Crashplace of Bomber 4085", "geonames_id": "NONE", "self_link": "/entities/bombers/detail/149"}}, {"type": "Feature", "geometry": {"type": "Point", "coordinates": [18.68306, 45.99306]}, "properties": {"name": "", "type": "Crashplace of Bomber", "label": "Mohacs: Crashplace of Bomber 4089", "geonames_id": "NONE", "self_link": "/entities/bombers/detail/150"}}, {"type": "Feature", "geometry": {"type": "Point", "coordinates": [14.66409, 47.85717]}, "properties": {"name": "", "type": "Crashplace of Bomber", "label": "Weyer: Crashplace of Bomber 4197", "geonames_id": "NONE", "self_link": "/entities/bombers/detail/151"}}, null, {"type": "Feature", "geometry": {"type": "Point", "coordinates": [16.61395, 48.11573]}, "properties": {"name": "", "type": "Crashplace of Bomber", "label": "Fischamend: Crashplace of Bomber 4199", "geonames_id": "NONE", "self_link": "/entities/bombers/detail/153"}}, {"type": "Feature", "geometry": {"type": "Point", "coordinates": [15.97798, 45.81444]}, "properties": {"name": "", "type": "Crashplace of Bomber", "label": "Zagreb: Crashplace of Bomber 4200", "geonames_id": "NONE", "self_link": "/entities/bombers/detail/154"}}, {"type": "Feature", "geometry": {"type": "Point", "coordinates": [16.25, 47.8]}, "properties": {"name": "", "type": "Crashplace of Bomber", "label": "Wr. Neustadt: Crashplace of Bomber 4203", "geonames_id": "NONE", "self_link": "/entities/bombers/detail/155"}}, {"type": "Feature", "geometry": {"type": "Point", "coordinates": [16.75, 47.83333]}, "properties": {"name": "", "type": "Crashplace of Bomber", "label": "Neusiedlersee: Crashplace of Bomber 4206", "geonames_id": "NONE", "self_link": "/entities/bombers/detail/156"}}, {"type": "Feature", "geometry": {"type": "Point", "coordinates": [16.84889, 45.89861]}, "properties": {"name": "", "type": "Crashplace of Bomber", "label": "Bjelovar: Crashplace of Bomber 4225", "geonames_id": "NONE", "self_link": "/entities/bombers/detail/157"}}, null, {"type": "Feature", "geometry": {"type": "Point", "coordinates": [21.90333, 43.32472]}, "properties": {"name": "", "type": "Crashplace of Bomber", "label": "Nis: Crashplace of Bomber 4232", "geonames_id": "NONE", "self_link": "/entities/bombers/detail/159"}}, {"type": "Feature", "geometry": {"type": "Point", "coordinates": [19.75, 44.0]}, "properties": {"name": "", "type": "Crashplace of Bomber", "label": "Jugoslawien: Crashplace of Bomber 4356", "geonames_id": "NONE", "self_link": "/entities/bombers/detail/160"}}, {"type": "Feature", "geometry": {"type": "Point", "coordinates": [16.84389, 46.84]}, "properties": {"name": "", "type": "Crashplace of Bomber", "label": "Zalaegerszeg: Crashplace of Bomber 4370", "geonames_id": "NONE", "self_link": "/entities/bombers/detail/161"}}, {"type": "Feature", "geometry": {"type": "Point", "coordinates": [19.03991, 47.49801]}, "properties": {"name": "", "type": "Crashplace of Bomber", "label": "Budapest: Crashplace of Bomber 4371", "geonames_id": "NONE", "self_link": "/entities/bombers/detail/162"}}, {"type": "Feature", "geometry": {"type": "Point", "coordinates": [16.70085, 47.63638]}, "properties": {"name": "", "type": "Crashplace of Bomber", "label": "Fertoboz: Crashplace of Bomber 4372", "geonames_id": "NONE", "self_link": "/entities/bombers/detail/163"}}, {"type": "Feature", "geometry": {"type": "Point", "coordinates": [17.63512, 47.68333]}, "properties": {"name": "", "type": "Crashplace of Bomber", "label": "Gy\u00f6r: Crashplace of Bomber 4389", "geonames_id": "NONE", "self_link": "/entities/bombers/detail/164"}}, {"type": "Feature", "geometry": {"type": "Point", "coordinates": [16.08107, 47.72096]}, "properties": {"name": "", "type": "Crashplace of Bomber", "label": "Neunkirchen: Crashplace of Bomber 4393", "geonames_id": "NONE", "self_link": "/entities/bombers/detail/165"}}, null, {"type": "Feature", "geometry": {"type": "Point", "coordinates": [17.80806, 43.34333]}, "properties": {"name": "", "type": "Crashplace of Bomber", "label": "Mostar: Crashplace of Bomber 4401", "geonames_id": "NONE", "self_link": "/entities/bombers/detail/167"}}, {"type": "Feature", "geometry": {"type": "Point", "coordinates": [19.14608, 42.55384]}, "properties": {"name": "", "type": "Crashplace of Bomber", "label": "Danilovgrad: Crashplace of Bomber 4624", "geonames_id": "NONE", "self_link": "/entities/bombers/detail/168"}}, {"type": "Feature", "geometry": {"type": "Point", "coordinates": [19.03991, 47.49801]}, "properties": {"name": "", "type": "Crashplace of Bomber", "label": "Budapest Umgebung: Crashplace of Bomber 4649", "geonames_id": "NONE", "self_link": "/entities/bombers/detail/169"}}, {"type": "Feature", "geometry": {"type": "Point", "coordinates": [16.8302, 47.74394]}, "properties": {"name": "", "type": "Crashplace of Bomber", "label": "Apetlon: Crashplace of Bomber 4657", "geonames_id": "NONE", "self_link": "/entities/bombers/detail/170"}}, {"type": "Feature", "geometry": {"type": "Point", "coordinates": [16.08107, 47.72096]}, "properties": {"name": "", "type": "Crashplace of Bomber", "label": "Neunkirchen: Crashplace of Bomber 4658", "geonames_id": "NONE", "self_link": "/entities/bombers/detail/171"}}, {"type": "Feature", "geometry": {"type": "Point", "coordinates": [16.25, 47.8]}, "properties": {"name": "", "type": "Crashplace of Bomber", "label": "Wr. Neustadt: Crashplace of Bomber 4659", "geonames_id": "NONE", "self_link": "/entities/bombers/detail/172"}}, {"type": "Feature", "geometry": {"type": "Point", "coordinates": [16.08107, 47.72096]}, "properties": {"name": "", "type": "Crashplace of Bomber", "label": "Neunkirchen: Crashplace of Bomber 4660", "geonames_id": "NONE", "self_link": "/entities/bombers/detail/173"}}, {"type": "Feature", "geometry": {"type": "Point", "coordinates": [16.60596, 47.01096]}, "properties": {"name": "", "type": "Crashplace of Bomber", "label": "K\u00f6rmend: Crashplace of Bomber 4664", "geonames_id": "NONE", "self_link": "/entities/bombers/detail/174"}}, {"type": "Feature", "geometry": {"type": "Point", "coordinates": [16.67158, 47.80122]}, "properties": {"name": "Essman", "type": "Crashplace of Bomber", "label": "Rust am See: Crashplace of Bomber 4711", "geonames_id": "NONE", "self_link": "/entities/bombers/detail/175"}}, {"type": "Feature", "geometry": {"type": "Point", "coordinates": [16.43389, 46.38444]}, "properties": {"name": "", "type": "Crashplace of Bomber", "label": "Cakovec (Czaktornya): Crashplace of Bomber 4715", "geonames_id": "NONE", "self_link": "/entities/bombers/detail/176"}}, {"type": "Feature", "geometry": {"type": "Point", "coordinates": [16.52327, 47.84565]}, "properties": {"name": "", "type": "Crashplace of Bomber", "label": "Eisenstadt: Crashplace of Bomber 4722", "geonames_id": "NONE", "self_link": "/entities/bombers/detail/177"}}, {"type": "Feature", "geometry": {"type": "Point", "coordinates": [16.25, 47.8]}, "properties": {"name": "", "type": "Crashplace of Bomber", "label": "Wr. Neustadt: Crashplace of Bomber 4723", "geonames_id": "NONE", "self_link": "/entities/bombers/detail/178"}}, {"type": "Feature", "geometry": {"type": "Point", "coordinates": [16.08333, 47.28333]}, "properties": {"name": "", "type": "Crashplace of Bomber", "label": "Markt Allhau: Crashplace of Bomber 4729", "geonames_id": "NONE", "self_link": "/entities/bombers/detail/179"}}, null, {"type": "Feature", "geometry": {"type": "Point", "coordinates": [16.44095, 47.30467]}, "properties": {"name": "", "type": "Crashplace of Bomber", "label": "Rechnitz: Crashplace of Bomber 4745", "geonames_id": "NONE", "self_link": "/entities/bombers/detail/181"}}, {"type": "Feature", "geometry": {"type": "Point", "coordinates": [16.25, 47.8]}, "properties": {"name": "", "type": "Crashplace of Bomber", "label": "Wr. Neustadt: Crashplace of Bomber 4746", "geonames_id": "NONE", "self_link": "/entities/bombers/detail/182"}}, {"type": "Feature", "geometry": {"type": "Point", "coordinates": [16.08107, 47.72096]}, "properties": {"name": "", "type": "Crashplace of Bomber", "label": "Neunkirchen: Crashplace of Bomber 4747", "geonames_id": "NONE", "self_link": "/entities/bombers/detail/183"}}, {"type": "Feature", "geometry": {"type": "Point", "coordinates": [19.27602, 45.09604]}, "properties": {"name": "Princess Elisabeth", "type": "Crashplace of Bomber", "label": "Papovac: Crashplace of Bomber 4748", "geonames_id": "NONE", "self_link": "/entities/bombers/detail/184"}}, {"type": "Feature", "geometry": {"type": "Point", "coordinates": [16.08107, 47.72096]}, "properties": {"name": "", "type": "Crashplace of Bomber", "label": "Neunkirchen: Crashplace of Bomber 4804", "geonames_id": "NONE", "self_link": "/entities/bombers/detail/185"}}, {"type": "Feature", "geometry": {"type": "Point", "coordinates": [16.75, 47.83333]}, "properties": {"name": "", "type": "Crashplace of Bomber", "label": "Neusiedlersee: Crashplace of Bomber 4838", "geonames_id": "NONE", "self_link": "/entities/bombers/detail/186"}}, {"type": "Feature", "geometry": {"type": "Point", "coordinates": [15.78104, 47.52694]}, "properties": {"name": "", "type": "Crashplace of Bomber", "label": "Rettenegg: Crashplace of Bomber 4845", "geonames_id": "NONE", "self_link": "/entities/bombers/detail/187"}}, {"type": "Feature", "geometry": {"type": "Point", "coordinates": [16.25, 47.8]}, "properties": {"name": "", "type": "Crashplace of Bomber", "label": "Wr. Neustadt: Crashplace of Bomber 4846", "geonames_id": "NONE", "self_link": "/entities/bombers/detail/188"}}, {"type": "Feature", "geometry": {"type": "Point", "coordinates": [16.25, 47.8]}, "properties": {"name": "", "type": "Crashplace of Bomber", "label": "Wr. Neustadt: Crashplace of Bomber 4889", "geonames_id": "NONE", "self_link": "/entities/bombers/detail/189"}}, {"type": "Feature", "geometry": {"type": "Point", "coordinates": [15.24932, 45.46488]}, "properties": {"name": "", "type": "Crashplace of Bomber", "label": "Ogulin: Crashplace of Bomber 4909", "geonames_id": "NONE", "self_link": "/entities/bombers/detail/190"}}, {"type": "Feature", "geometry": {"type": "Point", "coordinates": [16.39503, 47.77533]}, "properties": {"name": "", "type": "Crashplace of Bomber", "label": "Sigle\u00df: Crashplace of Bomber 5041", "geonames_id": "NONE", "self_link": "/entities/bombers/detail/191"}}, {"type": "Feature", "geometry": {"type": "Point", "coordinates": [16.47915, 47.93348]}, "properties": {"name": "", "type": "Crashplace of Bomber", "label": "Prodersdorf an der Leitha: Crashplace of Bomber 5045", "geonames_id": "NONE", "self_link": "/entities/bombers/detail/192"}}, {"type": "Feature", "geometry": {"type": "Point", "coordinates": [15.97798, 45.81444]}, "properties": {"name": "Lucky Strike", "type": "Crashplace of Bomber", "label": "Zagreb: Crashplace of Bomber 5047", "geonames_id": "NONE", "self_link": "/entities/bombers/detail/193"}}, {"type": "Feature", "geometry": {"type": "Point", "coordinates": [15.26722, 46.89444]}, "properties": {"name": "", "type": "Crashplace of Bomber", "label": "Stainz: Crashplace of Bomber 5056", "geonames_id": "NONE", "self_link": "/entities/bombers/detail/194"}}, {"type": "Feature", "geometry": {"type": "Point", "coordinates": [16.52327, 47.84565]}, "properties": {"name": "", "type": "Crashplace of Bomber", "label": "Eisenstadt: Crashplace of Bomber 5058", "geonames_id": "NONE", "self_link": "/entities/bombers/detail/195"}}, {"type": "Feature", "geometry": {"type": "Point", "coordinates": [15.20776, 46.55664]}, "properties": {"name": "", "type": "Crashplace of Bomber", "label": "Sveti Anton na Pohorju: Crashplace of Bomber 5065", "geonames_id": "NONE", "self_link": "/entities/bombers/detail/196"}}, null, {"type": "Feature", "geometry": {"type": "Point", "coordinates": [15.91352, 47.78709]}, "properties": {"name": "", "type": "Crashplace of Bomber", "label": "Puchberg am Schneeberg: Crashplace of Bomber 5069", "geonames_id": "NONE", "self_link": "/entities/bombers/detail/198"}}, {"type": "Feature", "geometry": {"type": "Point", "coordinates": [15.71, 46.90389]}, "properties": {"name": "", "type": "Crashplace of Bomber", "label": "St. Stefan im Rosental: Crashplace of Bomber 5070", "geonames_id": "NONE", "self_link": "/entities/bombers/detail/199"}}, {"type": "Feature", "geometry": {"type": "Point", "coordinates": [19.81889, 41.3275]}, "properties": {"name": "", "type": "Crashplace of Bomber", "label": "Tirana: Crashplace of Bomber 5094", "geonames_id": "NONE", "self_link": "/entities/bombers/detail/200"}}, {"type": "Feature", "geometry": {"type": "Point", "coordinates": [15.52162, 48.07051]}, "properties": {"name": "", "type": "Crashplace of Bomber", "label": "Plambach / Gr\u00fcnau: Crashplace of Bomber 5184", "geonames_id": "NONE", "self_link": "/entities/bombers/detail/201"}}, {"type": "Feature", "geometry": {"type": "Point", "coordinates": [15.31639, 47.77306]}, "properties": {"name": "", "type": "Crashplace of Bomber", "label": "Mariazell: Crashplace of Bomber 5185", "geonames_id": "NONE", "self_link": "/entities/bombers/detail/202"}}, {"type": "Feature", "geometry": {"type": "Point", "coordinates": [16.23264, 48.00543]}, "properties": {"name": "", "type": "Crashplace of Bomber", "label": "Baden: Crashplace of Bomber 5186", "geonames_id": "NONE", "self_link": "/entities/bombers/detail/203"}}, {"type": "Feature", "geometry": {"type": "Point", "coordinates": [16.37833, 45.46611]}, "properties": {"name": "Our Baby", "type": "Crashplace of Bomber", "label": "Sisak: Crashplace of Bomber 5187", "geonames_id": "NONE", "self_link": "/entities/bombers/detail/204"}}, {"type": "Feature", "geometry": {"type": "Point", "coordinates": [16.38333, 48.03333]}, "properties": {"name": "Moby Dick", "type": "Crashplace of Bomber", "label": "M\u00fcnchendorf: Crashplace of Bomber 5188", "geonames_id": "NONE", "self_link": "/entities/bombers/detail/205"}}, {"type": "Feature", "geometry": {"type": "Point", "coordinates": [16.52327, 47.84565]}, "properties": {"name": "", "type": "Crashplace of Bomber", "label": "Eisenstadt: Crashplace of Bomber 5189", "geonames_id": "NONE", "self_link": "/entities/bombers/detail/206"}}, {"type": "Feature", "geometry": {"type": "Point", "coordinates": [15.4945, 47.57815]}, "properties": {"name": "", "type": "Crashplace of Bomber", "label": "Kaiblinggraben Veitsch: Crashplace of Bomber 5190", "geonames_id": "NONE", "self_link": "/entities/bombers/detail/207"}}, {"type": "Feature", "geometry": {"type": "Point", "coordinates": [15.51667, 46.88333]}, "properties": {"name": "", "type": "Crashplace of Bomber", "label": "Wildon: Crashplace of Bomber 5194", "geonames_id": "NONE", "self_link": "/entities/bombers/detail/208"}}, {"type": "Feature", "geometry": {"type": "Point", "coordinates": [16.4, 47.73333]}, "properties": {"name": "", "type": "Crashplace of Bomber", "label": "Mattersburg: Crashplace of Bomber 5370", "geonames_id": "NONE", "self_link": "/entities/bombers/detail/209"}}, {"type": "Feature", "geometry": {"type": "Point", "coordinates": [16.25, 47.8]}, "properties": {"name": "", "type": "Crashplace of Bomber", "label": "Wr. Neustadt: Crashplace of Bomber 5374", "geonames_id": "NONE", "self_link": "/entities/bombers/detail/210"}}, {"type": "Feature", "geometry": {"type": "Point", "coordinates": [15.99103, 47.60738]}, "properties": {"name": "", "type": "Crashplace of Bomber", "label": "Kirchberg am Wechsel: Crashplace of Bomber 5407", "geonames_id": "NONE", "self_link": "/entities/bombers/detail/211"}}, {"type": "Feature", "geometry": {"type": "Point", "coordinates": [16.0736, 48.03046]}, "properties": {"name": "", "type": "Crashplace of Bomber", "label": "Maria Raisenmarkt: Crashplace of Bomber 5410", "geonames_id": "NONE", "self_link": "/entities/bombers/detail/212"}}, {"type": "Feature", "geometry": {"type": "Point", "coordinates": [16.28333, 47.61667]}, "properties": {"name": "", "type": "Crashplace of Bomber", "label": "Wiesmath: Crashplace of Bomber 5414", "geonames_id": "NONE", "self_link": "/entities/bombers/detail/213"}}, {"type": "Feature", "geometry": {"type": "Point", "coordinates": [15.97798, 45.81444]}, "properties": {"name": "Dollar Ride", "type": "Crashplace of Bomber", "label": "Zagreb: Crashplace of Bomber 5430", "geonames_id": "NONE", "self_link": "/entities/bombers/detail/214"}}, {"type": "Feature", "geometry": {"type": "Point", "coordinates": [15.50583, 47.77268]}, "properties": {"name": "", "type": "Crashplace of Bomber", "label": "Lahnsattel: Crashplace of Bomber 5433", "geonames_id": "NONE", "self_link": "/entities/bombers/detail/215"}}, {"type": "Feature", "geometry": {"type": "Point", "coordinates": [16.18333, 47.51667]}, "properties": {"name": "", "type": "Crashplace of Bomber", "label": "Krumbach: Crashplace of Bomber 5437", "geonames_id": "NONE", "self_link": "/entities/bombers/detail/216"}}, {"type": "Feature", "geometry": {"type": "Point", "coordinates": [16.4326, 44.74391]}, "properties": {"name": "", "type": "Crashplace of Bomber", "label": "Lusci Palanki: Crashplace of Bomber 5438", "geonames_id": "NONE", "self_link": "/entities/bombers/detail/217"}}, {"type": "Feature", "geometry": {"type": "Point", "coordinates": [15.28333, 48.13333]}, "properties": {"name": "", "type": "Crashplace of Bomber", "label": "St. Leonhard am Forst: Crashplace of Bomber 5439", "geonames_id": "NONE", "self_link": "/entities/bombers/detail/218"}}, {"type": "Feature", "geometry": {"type": "Point", "coordinates": [15.31639, 47.77306]}, "properties": {"name": "", "type": "Crashplace of Bomber", "label": "Mariazell: Crashplace of Bomber 5440", "geonames_id": "NONE", "self_link": "/entities/bombers/detail/219"}}, {"type": "Feature", "geometry": {"type": "Point", "coordinates": [15.64972, 47.44234]}, "properties": {"name": "", "type": "Crashplace of Bomber", "label": "Fischbach: Crashplace of Bomber 5443", "geonames_id": "NONE", "self_link": "/entities/bombers/detail/220"}}, {"type": "Feature", "geometry": {"type": "Point", "coordinates": [15.16588, 47.23571]}, "properties": {"name": "", "type": "Crashplace of Bomber", "label": "\u00dcbelbach: Crashplace of Bomber 5445", "geonames_id": "NONE", "self_link": "/entities/bombers/detail/221"}}, {"type": "Feature", "geometry": {"type": "Point", "coordinates": [14.03333, 48.16667]}, "properties": {"name": "", "type": "Crashplace of Bomber", "label": "Wels: Crashplace of Bomber 5454", "geonames_id": "NONE", "self_link": "/entities/bombers/detail/222"}}, {"type": "Feature", "geometry": {"type": "Point", "coordinates": [16.75, 47.83333]}, "properties": {"name": "", "type": "Crashplace of Bomber", "label": "Neusiedlersee: Crashplace of Bomber 5456", "geonames_id": "NONE", "self_link": "/entities/bombers/detail/223"}}, {"type": "Feature", "geometry": {"type": "Point", "coordinates": [15.77414, 48.0339]}, "properties": {"name": "", "type": "Crashplace of Bomber", "label": "Hainfeld: Crashplace of Bomber 5457", "geonames_id": "NONE", "self_link": "/entities/bombers/detail/224"}}, {"type": "Feature", "geometry": {"type": "Point", "coordinates": [15.97326, 47.97326]}, "properties": {"name": "", "type": "Crashplace of Bomber", "label": "Furth an der Triesting: Crashplace of Bomber 5458", "geonames_id": "NONE", "self_link": "/entities/bombers/detail/225"}}, {"type": "Feature", "geometry": {"type": "Point", "coordinates": [15.33186, 48.22737]}, "properties": {"name": "", "type": "Crashplace of Bomber", "label": "Melk: Crashplace of Bomber 5460", "geonames_id": "NONE", "self_link": "/entities/bombers/detail/226"}}, {"type": "Feature", "geometry": {"type": "Point", "coordinates": [15.32593, 47.98234]}, "properties": {"name": "", "type": "Crashplace of Bomber", "label": "Frankenfels: Crashplace of Bomber 5461", "geonames_id": "NONE", "self_link": "/entities/bombers/detail/227"}}, {"type": "Feature", "geometry": {"type": "Point", "coordinates": [24.53247, 44.44883]}, "properties": {"name": "Hard to get", "type": "Crashplace of Bomber", "label": "Balteni: Crashplace of Bomber 5462", "geonames_id": "NONE", "self_link": "/entities/bombers/detail/228"}}, {"type": "Feature", "geometry": {"type": "Point", "coordinates": [16.25, 47.8]}, "properties": {"name": "", "type": "Crashplace of Bomber", "label": "Wr. Neustadt: Crashplace of Bomber 5465", "geonames_id": "NONE", "self_link": "/entities/bombers/detail/229"}}, {"type": "Feature", "geometry": {"type": "Point", "coordinates": [15.49295, 47.93095]}, "properties": {"name": "", "type": "Crashplace of Bomber", "label": "T\u00fcrnitz: Crashplace of Bomber 5467", "geonames_id": "NONE", "self_link": "/entities/bombers/detail/230"}}, {"type": "Feature", "geometry": {"type": "Point", "coordinates": [16.25, 47.8]}, "properties": {"name": "", "type": "Crashplace of Bomber", "label": "Wr. Neustadt: Crashplace of Bomber 5469", "geonames_id": "NONE", "self_link": "/entities/bombers/detail/231"}}, {"type": "Feature", "geometry": {"type": "Point", "coordinates": [16.29, 45.4375]}, "properties": {"name": "", "type": "Crashplace of Bomber", "label": "Petrinja: Crashplace of Bomber 5471", "geonames_id": "NONE", "self_link": "/entities/bombers/detail/232"}}, {"type": "Feature", "geometry": {"type": "Point", "coordinates": [16.63472, 48.60389]}, "properties": {"name": "", "type": "Crashplace of Bomber", "label": "Aukental bei Aschbach: Crashplace of Bomber 5636", "geonames_id": "NONE", "self_link": "/entities/bombers/detail/233"}}, null, {"type": "Feature", "geometry": {"type": "Point", "coordinates": [12.36897, 47.45595]}, "properties": {"name": "", "type": "Crashplace of Bomber", "label": "Schwarzsee: Crashplace of Bomber 5645", "geonames_id": "NONE", "self_link": "/entities/bombers/detail/235"}}, {"type": "Feature", "geometry": {"type": "Point", "coordinates": [15.4945, 47.57815]}, "properties": {"name": "", "type": "Crashplace of Bomber", "label": "Veitsch: Crashplace of Bomber 5647", "geonames_id": "NONE", "self_link": "/entities/bombers/detail/236"}}, {"type": "Feature", "geometry": {"type": "Point", "coordinates": [15.49145, 47.67556]}, "properties": {"name": "", "type": "Crashplace of Bomber", "label": "M\u00fcrzsteg: Crashplace of Bomber 5648", "geonames_id": "NONE", "self_link": "/entities/bombers/detail/237"}}, {"type": "Feature", "geometry": {"type": "Point", "coordinates": [16.25, 47.8]}, "properties": {"name": "", "type": "Crashplace of Bomber", "label": "Wr. Neustadt: Crashplace of Bomber 5666", "geonames_id": "NONE", "self_link": "/entities/bombers/detail/238"}}, {"type": "Feature", "geometry": {"type": "Point", "coordinates": [17.91149, 47.09327]}, "properties": {"name": "", "type": "Crashplace of Bomber", "label": "Veszprem: Crashplace of Bomber 5767", "geonames_id": "NONE", "self_link": "/entities/bombers/detail/239"}}, {"type": "Feature", "geometry": {"type": "Point", "coordinates": [17.75, 46.83333]}, "properties": {"name": "", "type": "Crashplace of Bomber", "label": "Balaton: Crashplace of Bomber 5769", "geonames_id": "NONE", "self_link": "/entities/bombers/detail/240"}}, {"type": "Feature", "geometry": {"type": "Point", "coordinates": [19.03991, 47.49801]}, "properties": {"name": "", "type": "Crashplace of Bomber", "label": "Budapest: Crashplace of Bomber 5773", "geonames_id": "NONE", "self_link": "/entities/bombers/detail/241"}}, null, {"type": "Feature", "geometry": {"type": "Point", "coordinates": [13.04399, 47.79941]}, "properties": {"name": "", "type": "Crashplace of Bomber", "label": "Salzburg: Crashplace of Bomber 5782", "geonames_id": "NONE", "self_link": "/entities/bombers/detail/243"}}, {"type": "Feature", "geometry": {"type": "Point", "coordinates": [9.7471, 47.50311]}, "properties": {"name": "", "type": "Crashplace of Bomber", "label": "Bregenz: Crashplace of Bomber 5783", "geonames_id": "NONE", "self_link": "/entities/bombers/detail/244"}}, {"type": "Feature", "geometry": {"type": "Point", "coordinates": [15.83333, 47.3]}, "properties": {"name": "", "type": "Crashplace of Bomber", "label": "P\u00f6llau: Crashplace of Bomber 5785", "geonames_id": "NONE", "self_link": "/entities/bombers/detail/245"}}, {"type": "Feature", "geometry": {"type": "Point", "coordinates": [11.51667, 47.28333]}, "properties": {"name": "", "type": "Crashplace of Bomber", "label": "Hall in Tirol: Crashplace of Bomber 5812", "geonames_id": "NONE", "self_link": "/entities/bombers/detail/246"}}, {"type": "Feature", "geometry": {"type": "Point", "coordinates": [16.44801, 48.06443]}, "properties": {"name": "", "type": "Crashplace of Bomber", "label": "Himberg: Crashplace of Bomber 5815", "geonames_id": "NONE", "self_link": "/entities/bombers/detail/247"}}, {"type": "Feature", "geometry": {"type": "Point", "coordinates": [18.41034, 47.18995]}, "properties": {"name": "", "type": "Crashplace of Bomber", "label": "Szekesfehervar: Crashplace of Bomber 5816", "geonames_id": "NONE", "self_link": "/entities/bombers/detail/248"}}, {"type": "Feature", "geometry": {"type": "Point", "coordinates": [17.97253, 46.72838]}, "properties": {"name": "", "type": "Crashplace of Bomber", "label": "Kapoly: Crashplace of Bomber 5817", "geonames_id": "NONE", "self_link": "/entities/bombers/detail/249"}}, {"type": "Feature", "geometry": {"type": "Point", "coordinates": [17.75, 46.83333]}, "properties": {"name": "", "type": "Crashplace of Bomber", "label": "Balaton: Crashplace of Bomber 5818", "geonames_id": "NONE", "self_link": "/entities/bombers/detail/250"}}, {"type": "Feature", "geometry": {"type": "Point", "coordinates": [17.75, 46.83333]}, "properties": {"name": "", "type": "Crashplace of Bomber", "label": "Balaton: Crashplace of Bomber 5819", "geonames_id": "NONE", "self_link": "/entities/bombers/detail/251"}}, {"type": "Feature", "geometry": {"type": "Point", "coordinates": [17.54594, 45.62015]}, "properties": {"name": "", "type": "Crashplace of Bomber", "label": "Vocin: Crashplace of Bomber 5820", "geonames_id": "NONE", "self_link": "/entities/bombers/detail/252"}}, null, {"type": "Feature", "geometry": {"type": "Point", "coordinates": [16.03425, 47.51062]}, "properties": {"name": "", "type": "Crashplace of Bomber", "label": "M\u00f6nichkirchen Umgebung: Crashplace of Bomber 5838", "geonames_id": "NONE", "self_link": "/entities/bombers/detail/254"}}, {"type": "Feature", "geometry": {"type": "Point", "coordinates": [16.25, 47.8]}, "properties": {"name": "", "type": "Crashplace of Bomber", "label": "Wr. Neustadt: Crashplace of Bomber 5859", "geonames_id": "NONE", "self_link": "/entities/bombers/detail/255"}}, {"type": "Feature", "geometry": {"type": "Point", "coordinates": [17.19386, 44.77842]}, "properties": {"name": "", "type": "Crashplace of Bomber", "label": "Banja Luka: Crashplace of Bomber 6015", "geonames_id": "NONE", "self_link": "/entities/bombers/detail/256"}}, {"type": "Feature", "geometry": {"type": "Point", "coordinates": [17.38389, 45.83194]}, "properties": {"name": "Toledo Tantrum", "type": "Crashplace of Bomber", "label": "Virovitica: Crashplace of Bomber 6019", "geonames_id": "NONE", "self_link": "/entities/bombers/detail/257"}}, {"type": "Feature", "geometry": {"type": "Point", "coordinates": [17.22515, 43.71849]}, "properties": {"name": "", "type": "Crashplace of Bomber", "label": "Tomislavgrad: Crashplace of Bomber 6020", "geonames_id": "NONE", "self_link": "/entities/bombers/detail/258"}}, {"type": "Feature", "geometry": {"type": "Point", "coordinates": [18.58361, 45.35917]}, "properties": {"name": "", "type": "Crashplace of Bomber", "label": "Glomac: Crashplace of Bomber 6023", "geonames_id": "NONE", "self_link": "/entities/bombers/detail/259"}}, {"type": "Feature", "geometry": {"type": "Point", "coordinates": [18.11667, 47.16667]}, "properties": {"name": "", "type": "Crashplace of Bomber", "label": "Petf\u00fcrd\u00f6: Crashplace of Bomber 6031", "geonames_id": "NONE", "self_link": "/entities/bombers/detail/260"}}, {"type": "Feature", "geometry": {"type": "Point", "coordinates": [15.97798, 45.81444]}, "properties": {"name": "", "type": "Crashplace of Bomber", "label": "Zagreb: Crashplace of Bomber 6032", "geonames_id": "NONE", "self_link": "/entities/bombers/detail/261"}}, {"type": "Feature", "geometry": {"type": "Point", "coordinates": [16.75, 47.83333]}, "properties": {"name": "", "type": "Crashplace of Bomber", "label": "Neusiedlersee: Crashplace of Bomber 6033", "geonames_id": "NONE", "self_link": "/entities/bombers/detail/262"}}, null, {"type": "Feature", "geometry": {"type": "Point", "coordinates": [11.06817, 47.30707]}, "properties": {"name": "", "type": "Crashplace of Bomber", "label": "Telfs: Crashplace of Bomber 6042", "geonames_id": "NONE", "self_link": "/entities/bombers/detail/264"}}, {"type": "Feature", "geometry": {"type": "Point", "coordinates": [13.77678, 45.64953]}, "properties": {"name": "", "type": "Crashplace of Bomber", "label": "Trieste: Crashplace of Bomber 6091", "geonames_id": "NONE", "self_link": "/entities/bombers/detail/265"}}, {"type": "Feature", "geometry": {"type": "Point", "coordinates": [17.75, 46.83333]}, "properties": {"name": "The Club 105", "type": "Crashplace of Bomber", "label": "Balaton: Crashplace of Bomber 6093", "geonames_id": "NONE", "self_link": "/entities/bombers/detail/266"}}, {"type": "Feature", "geometry": {"type": "Point", "coordinates": [16.58333, 48.01667]}, "properties": {"name": "", "type": "Crashplace of Bomber", "label": "G\u00f6tzendorf/Leitha: Crashplace of Bomber 6095", "geonames_id": "NONE", "self_link": "/entities/bombers/detail/267"}}, {"type": "Feature", "geometry": {"type": "Point", "coordinates": [17.75, 46.83333]}, "properties": {"name": "", "type": "Crashplace of Bomber", "label": "Balaton: Crashplace of Bomber 6102", "geonames_id": "NONE", "self_link": "/entities/bombers/detail/268"}}, {"type": "Feature", "geometry": {"type": "Point", "coordinates": [19.1965, 47.416]}, "properties": {"name": "", "type": "Crashplace of Bomber", "label": "Budapest s\u00fcd\u00f6stlich: Crashplace of Bomber 6127", "geonames_id": "NONE", "self_link": "/entities/bombers/detail/269"}}, {"type": "Feature", "geometry": {"type": "Point", "coordinates": [16.62155, 47.23088]}, "properties": {"name": "", "type": "Crashplace of Bomber", "label": "Szombathely: Crashplace of Bomber 6128", "geonames_id": "NONE", "self_link": "/entities/bombers/detail/270"}}, {"type": "Feature", "geometry": {"type": "Point", "coordinates": [18.13334, 46.61135]}, "properties": {"name": "", "type": "Crashplace of Bomber", "label": "Erteny: Crashplace of Bomber 6132", "geonames_id": "NONE", "self_link": "/entities/bombers/detail/271"}}, {"type": "Feature", "geometry": {"type": "Point", "coordinates": [16.56532, 48.24657]}, "properties": {"name": "", "type": "Crashplace of Bomber", "label": "Raasdorf bei Wien: Crashplace of Bomber 6170", "geonames_id": "NONE", "self_link": "/entities/bombers/detail/272"}}, {"type": "Feature", "geometry": {"type": "Point", "coordinates": [15.66256, 47.15336]}, "properties": {"name": "", "type": "Crashplace of Bomber", "label": "St. Ruprecht an der Raab: Crashplace of Bomber 6171", "geonames_id": "NONE", "self_link": "/entities/bombers/detail/273"}}, {"type": "Feature", "geometry": {"type": "Point", "coordinates": [19.03991, 47.49801]}, "properties": {"name": "", "type": "Crashplace of Bomber", "label": "Budapest: Crashplace of Bomber 6173", "geonames_id": "NONE", "self_link": "/entities/bombers/detail/274"}}, {"type": "Feature", "geometry": {"type": "Point", "coordinates": [16.60389, 48.36]}, "properties": {"name": "", "type": "Crashplace of Bomber", "label": "Bockflie\u00df: Crashplace of Bomber 6174", "geonames_id": "NONE", "self_link": "/entities/bombers/detail/275"}}, {"type": "Feature", "geometry": {"type": "Point", "coordinates": [19.03991, 47.49801]}, "properties": {"name": "", "type": "Crashplace of Bomber", "label": "Budapest: Crashplace of Bomber 6175", "geonames_id": "NONE", "self_link": "/entities/bombers/detail/276"}}, {"type": "Feature", "geometry": {"type": "Point", "coordinates": [16.44801, 48.06443]}, "properties": {"name": "", "type": "Crashplace of Bomber", "label": "Himberg: Crashplace of Bomber 6177", "geonames_id": "NONE", "self_link": "/entities/bombers/detail/277"}}, {"type": "Feature", "geometry": {"type": "Point", "coordinates": [12.76903, 46.8289]}, "properties": {"name": "", "type": "Crashplace of Bomber", "label": "Lienz: Crashplace of Bomber 6179", "geonames_id": "NONE", "self_link": "/entities/bombers/detail/278"}}, {"type": "Feature", "geometry": {"type": "Point", "coordinates": [17.91149, 47.09327]}, "properties": {"name": "", "type": "Crashplace of Bomber", "label": "Veszprem: Crashplace of Bomber 6303", "geonames_id": "NONE", "self_link": "/entities/bombers/detail/279"}}, {"type": "Feature", "geometry": {"type": "Point", "coordinates": [21.63333, 47.53333]}, "properties": {"name": "Shirley our Girlie", "type": "Crashplace of Bomber", "label": "Debrecen: Crashplace of Bomber 6310", "geonames_id": "NONE", "self_link": "/entities/bombers/detail/280"}}, {"type": "Feature", "geometry": {"type": "Point", "coordinates": [18.11913, 47.74318]}, "properties": {"name": "", "type": "Crashplace of Bomber", "label": "Komarom: Crashplace of Bomber 6312", "geonames_id": "NONE", "self_link": "/entities/bombers/detail/281"}}, {"type": "Feature", "geometry": {"type": "Point", "coordinates": [14.97333, 46.78833]}, "properties": {"name": "", "type": "Crashplace of Bomber", "label": "Koralpe: Crashplace of Bomber 6314", "geonames_id": "NONE", "self_link": "/entities/bombers/detail/282"}}, {"type": "Feature", "geometry": {"type": "Point", "coordinates": [17.06389, 48.0925]}, "properties": {"name": "", "type": "Crashplace of Bomber", "label": "Kittsee / Berg: Crashplace of Bomber 6321", "geonames_id": "NONE", "self_link": "/entities/bombers/detail/283"}}, {"type": "Feature", "geometry": {"type": "Point", "coordinates": [16.72016, 48.33925]}, "properties": {"name": "", "type": "Crashplace of Bomber", "label": "G\u00e4nserndorf: Crashplace of Bomber 6326", "geonames_id": "NONE", "self_link": "/entities/bombers/detail/284"}}, {"type": "Feature", "geometry": {"type": "Point", "coordinates": [16.59049, 47.68501]}, "properties": {"name": "", "type": "Crashplace of Bomber", "label": "Sopron: Crashplace of Bomber 6328", "geonames_id": "NONE", "self_link": "/entities/bombers/detail/285"}}, {"type": "Feature", "geometry": {"type": "Point", "coordinates": [16.11667, 48.38333]}, "properties": {"name": "", "type": "Crashplace of Bomber", "label": "Schmida bei Tulln: Crashplace of Bomber 6329", "geonames_id": "NONE", "self_link": "/entities/bombers/detail/286"}}, {"type": "Feature", "geometry": {"type": "Point", "coordinates": [19.0565, 47.4081]}, "properties": {"name": "Fearless Fosdick", "type": "Crashplace of Bomber", "label": "Budapest s\u00fcdlich: Crashplace of Bomber 6331", "geonames_id": "NONE", "self_link": "/entities/bombers/detail/287"}}, {"type": "Feature", "geometry": {"type": "Point", "coordinates": [16.37208, 48.20849]}, "properties": {"name": "", "type": "Crashplace of Bomber", "label": "Wien: Crashplace of Bomber 6332", "geonames_id": "NONE", "self_link": "/entities/bombers/detail/288"}}, {"type": "Feature", "geometry": {"type": "Point", "coordinates": [16.75, 47.83333]}, "properties": {"name": "", "type": "Crashplace of Bomber", "label": "Neusiedlersee: Crashplace of Bomber 6333", "geonames_id": "NONE", "self_link": "/entities/bombers/detail/289"}}, {"type": "Feature", "geometry": {"type": "Point", "coordinates": [18.23333, 46.08333]}, "properties": {"name": "", "type": "Crashplace of Bomber", "label": "Pecs: Crashplace of Bomber 6334", "geonames_id": "NONE", "self_link": "/entities/bombers/detail/290"}}, {"type": "Feature", "geometry": {"type": "Point", "coordinates": [17.75, 46.83333]}, "properties": {"name": "", "type": "Crashplace of Bomber", "label": "Balaton: Crashplace of Bomber 6335", "geonames_id": "NONE", "self_link": "/entities/bombers/detail/291"}}, {"type": "Feature", "geometry": {"type": "Point", "coordinates": [19.03991, 47.49801]}, "properties": {"name": "", "type": "Crashplace of Bomber", "label": "Budapest: Crashplace of Bomber 6336", "geonames_id": "NONE", "self_link": "/entities/bombers/detail/292"}}, {"type": "Feature", "geometry": {"type": "Point", "coordinates": [19.03991, 47.49801]}, "properties": {"name": "", "type": "Crashplace of Bomber", "label": "Budapest: Crashplace of Bomber 6337", "geonames_id": "NONE", "self_link": "/entities/bombers/detail/293"}}, {"type": "Feature", "geometry": {"type": "Point", "coordinates": [18.11913, 47.74318]}, "properties": {"name": "", "type": "Crashplace of Bomber", "label": "Komarom: Crashplace of Bomber 6338", "geonames_id": "NONE", "self_link": "/entities/bombers/detail/294"}}, {"type": "Feature", "geometry": {"type": "Point", "coordinates": [17.10674, 48.14816]}, "properties": {"name": "", "type": "Crashplace of Bomber", "label": "Bratislava: Crashplace of Bomber 6340", "geonames_id": "NONE", "self_link": "/entities/bombers/detail/295"}}, {"type": "Feature", "geometry": {"type": "Point", "coordinates": [19.03991, 47.49801]}, "properties": {"name": "", "type": "Crashplace of Bomber", "label": "Budapest: Crashplace of Bomber 6341", "geonames_id": "NONE", "self_link": "/entities/bombers/detail/296"}}, {"type": "Feature", "geometry": {"type": "Point", "coordinates": [16.93667, 48.21472]}, "properties": {"name": "Toni Gayle", "type": "Crashplace of Bomber", "label": "Schlosshof / Lassee: Crashplace of Bomber 6342", "geonames_id": "NONE", "self_link": "/entities/bombers/detail/297"}}, {"type": "Feature", "geometry": {"type": "Point", "coordinates": [16.33778, 46.30444]}, "properties": {"name": "", "type": "Crashplace of Bomber", "label": "Varaszdin: Crashplace of Bomber 6368", "geonames_id": "NONE", "self_link": "/entities/bombers/detail/298"}}, null, {"type": "Feature", "geometry": {"type": "Point", "coordinates": [16.99104, 46.45347]}, "properties": {"name": "", "type": "Crashplace of Bomber", "label": "Nagykanizsa: Crashplace of Bomber 6370", "geonames_id": "NONE", "self_link": "/entities/bombers/detail/300"}}, {"type": "Feature", "geometry": {"type": "Point", "coordinates": [15.90048, 48.30478]}, "properties": {"name": "", "type": "Crashplace of Bomber", "label": "Moosbierbaum: Crashplace of Bomber 6391", "geonames_id": "NONE", "self_link": "/entities/bombers/detail/301"}}, {"type": "Feature", "geometry": {"type": "Point", "coordinates": [17.75, 46.83333]}, "properties": {"name": "", "type": "Crashplace of Bomber", "label": "Balaton: Crashplace of Bomber 6394", "geonames_id": "NONE", "self_link": "/entities/bombers/detail/302"}}, {"type": "Feature", "geometry": {"type": "Point", "coordinates": [17.77586, 46.18876]}, "properties": {"name": "", "type": "Crashplace of Bomber", "label": "Kisharszegy: Crashplace of Bomber 6395", "geonames_id": "NONE", "self_link": "/entities/bombers/detail/303"}}, {"type": "Feature", "geometry": {"type": "Point", "coordinates": [17.75, 46.83333]}, "properties": {"name": "", "type": "Crashplace of Bomber", "label": "Balaton: Crashplace of Bomber 6396", "geonames_id": "NONE", "self_link": "/entities/bombers/detail/304"}}, {"type": "Feature", "geometry": {"type": "Point", "coordinates": [16.37208, 48.20849]}, "properties": {"name": "", "type": "Crashplace of Bomber", "label": "Wien: Crashplace of Bomber 6398", "geonames_id": "NONE", "self_link": "/entities/bombers/detail/305"}}, {"type": "Feature", "geometry": {"type": "Point", "coordinates": [16.85062, 48.47315]}, "properties": {"name": "Heaven can wait", "type": "Crashplace of Bomber", "label": "D\u00fcrnkrut: Crashplace of Bomber 6399", "geonames_id": "NONE", "self_link": "/entities/bombers/detail/306"}}, {"type": "Feature", "geometry": {"type": "Point", "coordinates": [16.05858, 48.32829]}, "properties": {"name": "The Rubber Check", "type": "Crashplace of Bomber", "label": "Tulln: Crashplace of Bomber 6400", "geonames_id": "NONE", "self_link": "/entities/bombers/detail/307"}}, {"type": "Feature", "geometry": {"type": "Point", "coordinates": [16.21359, 47.96533]}, "properties": {"name": "", "type": "Crashplace of Bomber", "label": "Bad V\u00f6slau: Crashplace of Bomber 6401", "geonames_id": "NONE", "self_link": "/entities/bombers/detail/308"}}, {"type": "Feature", "geometry": {"type": "Point", "coordinates": [16.05858, 48.32829]}, "properties": {"name": "", "type": "Crashplace of Bomber", "label": "Tulln: Crashplace of Bomber 6402", "geonames_id": "NONE", "self_link": "/entities/bombers/detail/309"}}, {"type": "Feature", "geometry": {"type": "Point", "coordinates": [16.05858, 48.32829]}, "properties": {"name": "Gargantua", "type": "Crashplace of Bomber", "label": "Tulln: Crashplace of Bomber 6404", "geonames_id": "NONE", "self_link": "/entities/bombers/detail/310"}}, {"type": "Feature", "geometry": {"type": "Point", "coordinates": [16.05858, 48.32829]}, "properties": {"name": "", "type": "Crashplace of Bomber", "label": "Tulln: Crashplace of Bomber 6405", "geonames_id": "NONE", "self_link": "/entities/bombers/detail/311"}}, {"type": "Feature", "geometry": {"type": "Point", "coordinates": [16.75, 47.83333]}, "properties": {"name": "", "type": "Crashplace of Bomber", "label": "Neusiedlersee: Crashplace of Bomber 6409", "geonames_id": "NONE", "self_link": "/entities/bombers/detail/312"}}, {"type": "Feature", "geometry": {"type": "Point", "coordinates": [19.1965, 47.416]}, "properties": {"name": "", "type": "Crashplace of Bomber", "label": "Budapest s\u00fcd\u00f6stlich: Crashplace of Bomber 6412", "geonames_id": "NONE", "self_link": "/entities/bombers/detail/313"}}, {"type": "Feature", "geometry": {"type": "Point", "coordinates": [17.4674, 47.33004]}, "properties": {"name": "", "type": "Crashplace of Bomber", "label": "Papa: Crashplace of Bomber 6413", "geonames_id": "NONE", "self_link": "/entities/bombers/detail/314"}}, {"type": "Feature", "geometry": {"type": "Point", "coordinates": [19.03991, 47.49801]}, "properties": {"name": "", "type": "Crashplace of Bomber", "label": "Budapest Umgebung: Crashplace of Bomber 6414", "geonames_id": "NONE", "self_link": "/entities/bombers/detail/315"}}, {"type": "Feature", "geometry": {"type": "Point", "coordinates": [11.39454, 47.26266]}, "properties": {"name": "", "type": "Crashplace of Bomber", "label": "Innsbruck: Crashplace of Bomber 6416", "geonames_id": "NONE", "self_link": "/entities/bombers/detail/316"}}, {"type": "Feature", "geometry": {"type": "Point", "coordinates": [17.75, 46.83333]}, "properties": {"name": "", "type": "Crashplace of Bomber", "label": "Balaton: Crashplace of Bomber 6420", "geonames_id": "NONE", "self_link": "/entities/bombers/detail/317"}}, {"type": "Feature", "geometry": {"type": "Point", "coordinates": [17.63512, 47.68333]}, "properties": {"name": "", "type": "Crashplace of Bomber", "label": "Gy\u00f6r: Crashplace of Bomber 6421", "geonames_id": "NONE", "self_link": "/entities/bombers/detail/318"}}, {"type": "Feature", "geometry": {"type": "Point", "coordinates": [18.11667, 47.16667]}, "properties": {"name": "", "type": "Crashplace of Bomber", "label": "Petf\u00fcrd\u00f6: Crashplace of Bomber 6424", "geonames_id": "NONE", "self_link": "/entities/bombers/detail/319"}}, {"type": "Feature", "geometry": {"type": "Point", "coordinates": [16.50447, 47.50352]}, "properties": {"name": "", "type": "Crashplace of Bomber", "label": "Oberpullendorf: Crashplace of Bomber 6427", "geonames_id": "NONE", "self_link": "/entities/bombers/detail/320"}}, {"type": "Feature", "geometry": {"type": "Point", "coordinates": [19.03991, 47.49801]}, "properties": {"name": "", "type": "Crashplace of Bomber", "label": "Budapest: Crashplace of Bomber 6428", "geonames_id": "NONE", "self_link": "/entities/bombers/detail/321"}}, {"type": "Feature", "geometry": {"type": "Point", "coordinates": [15.96667, 47.28333]}, "properties": {"name": "", "type": "Crashplace of Bomber", "label": "Hartberg: Crashplace of Bomber 6430", "geonames_id": "NONE", "self_link": "/entities/bombers/detail/322"}}, {"type": "Feature", "geometry": {"type": "Point", "coordinates": [16.54069, 47.75202]}, "properties": {"name": "", "type": "Crashplace of Bomber", "label": "Klingenbach: Crashplace of Bomber 6431", "geonames_id": "NONE", "self_link": "/entities/bombers/detail/323"}}, null, {"type": "Feature", "geometry": {"type": "Point", "coordinates": [15.59664, 48.01312]}, "properties": {"name": "", "type": "Crashplace of Bomber", "label": "Lilienfeld: Crashplace of Bomber 6433", "geonames_id": "NONE", "self_link": "/entities/bombers/detail/325"}}, {"type": "Feature", "geometry": {"type": "Point", "coordinates": [16.21359, 47.96533]}, "properties": {"name": "", "type": "Crashplace of Bomber", "label": "Bad V\u00f6slau: Crashplace of Bomber 6434", "geonames_id": "NONE", "self_link": "/entities/bombers/detail/326"}}, {"type": "Feature", "geometry": {"type": "Point", "coordinates": [17.4674, 47.33004]}, "properties": {"name": "", "type": "Crashplace of Bomber", "label": "Papa: Crashplace of Bomber 6435", "geonames_id": "NONE", "self_link": "/entities/bombers/detail/327"}}, {"type": "Feature", "geometry": {"type": "Point", "coordinates": [19.03991, 47.49801]}, "properties": {"name": "Hot and Bothered", "type": "Crashplace of Bomber", "label": "Budapest: Crashplace of Bomber 6438", "geonames_id": "NONE", "self_link": "/entities/bombers/detail/328"}}, {"type": "Feature", "geometry": {"type": "Point", "coordinates": [19.03991, 47.49801]}, "properties": {"name": "Emperor Jones", "type": "Crashplace of Bomber", "label": "Budapest: Crashplace of Bomber 6439", "geonames_id": "NONE", "self_link": "/entities/bombers/detail/329"}}, {"type": "Feature", "geometry": {"type": "Point", "coordinates": [17.7, 46.0]}, "properties": {"name": "Salvo Susie", "type": "Crashplace of Bomber", "label": "Pettend: Crashplace of Bomber 6440", "geonames_id": "NONE", "self_link": "/entities/bombers/detail/330"}}, {"type": "Feature", "geometry": {"type": "Point", "coordinates": [19.03991, 47.49801]}, "properties": {"name": "", "type": "Crashplace of Bomber", "label": "Budapest: Crashplace of Bomber 6441", "geonames_id": "NONE", "self_link": "/entities/bombers/detail/331"}}, {"type": "Feature", "geometry": {"type": "Point", "coordinates": [19.03991, 47.49801]}, "properties": {"name": "", "type": "Crashplace of Bomber", "label": "Budapest: Crashplace of Bomber 6442", "geonames_id": "NONE", "self_link": "/entities/bombers/detail/332"}}, {"type": "Feature", "geometry": {"type": "Point", "coordinates": [19.03991, 47.49801]}, "properties": {"name": "", "type": "Crashplace of Bomber", "label": "Budapest: Crashplace of Bomber 6445", "geonames_id": "NONE", "self_link": "/entities/bombers/detail/333"}}, {"type": "Feature", "geometry": {"type": "Point", "coordinates": [19.03991, 47.49801]}, "properties": {"name": "American Maid", "type": "Crashplace of Bomber", "label": "Budapest: Crashplace of Bomber 6446", "geonames_id": "NONE", "self_link": "/entities/bombers/detail/334"}}, {"type": "Feature", "geometry": {"type": "Point", "coordinates": [16.21359, 47.96533]}, "properties": {"name": "", "type": "Crashplace of Bomber", "label": "Bad V\u00f6slau: Crashplace of Bomber 6452", "geonames_id": "NONE", "self_link": "/entities/bombers/detail/335"}}, {"type": "Feature", "geometry": {"type": "Point", "coordinates": [16.32522, 48.30521]}, "properties": {"name": "", "type": "Crashplace of Bomber", "label": "Klosterneuburg: Crashplace of Bomber 6455", "geonames_id": "NONE", "self_link": "/entities/bombers/detail/336"}}, null, {"type": "Feature", "geometry": {"type": "Point", "coordinates": [16.91045, 48.26217]}, "properties": {"name": "", "type": "Crashplace of Bomber", "label": "Marchegg: Crashplace of Bomber 6510", "geonames_id": "NONE", "self_link": "/entities/bombers/detail/338"}}, {"type": "Feature", "geometry": {"type": "Point", "coordinates": [17.4674, 47.33004]}, "properties": {"name": "", "type": "Crashplace of Bomber", "label": "Papa: Crashplace of Bomber 6511", "geonames_id": "NONE", "self_link": "/entities/bombers/detail/339"}}, {"type": "Feature", "geometry": {"type": "Point", "coordinates": [17.4674, 47.33004]}, "properties": {"name": "", "type": "Crashplace of Bomber", "label": "Papa: Crashplace of Bomber 6512", "geonames_id": "NONE", "self_link": "/entities/bombers/detail/340"}}, {"type": "Feature", "geometry": {"type": "Point", "coordinates": [16.05858, 48.32829]}, "properties": {"name": "", "type": "Crashplace of Bomber", "label": "Tulln: Crashplace of Bomber 6516", "geonames_id": "NONE", "self_link": "/entities/bombers/detail/341"}}, {"type": "Feature", "geometry": {"type": "Point", "coordinates": [17.75, 46.83333]}, "properties": {"name": "", "type": "Crashplace of Bomber", "label": "Balaton: Crashplace of Bomber 6518", "geonames_id": "NONE", "self_link": "/entities/bombers/detail/342"}}, {"type": "Feature", "geometry": {"type": "Point", "coordinates": [16.27148, 47.12852]}, "properties": {"name": "Old Shep", "type": "Crashplace of Bomber", "label": "St. Michael im Burgenland: Crashplace of Bomber 6564", "geonames_id": "NONE", "self_link": "/entities/bombers/detail/343"}}, {"type": "Feature", "geometry": {"type": "Point", "coordinates": [17.81974, 47.75214]}, "properties": {"name": "", "type": "Crashplace of Bomber", "label": "Klizska Nema: Crashplace of Bomber 6565", "geonames_id": "NONE", "self_link": "/entities/bombers/detail/344"}}, {"type": "Feature", "geometry": {"type": "Point", "coordinates": [17.91149, 47.09327]}, "properties": {"name": "", "type": "Crashplace of Bomber", "label": "Veszprem: Crashplace of Bomber 6570", "geonames_id": "NONE", "self_link": "/entities/bombers/detail/345"}}, {"type": "Feature", "geometry": {"type": "Point", "coordinates": [17.75, 46.83333]}, "properties": {"name": "", "type": "Crashplace of Bomber", "label": "Balaton: Crashplace of Bomber 6571", "geonames_id": "NONE", "self_link": "/entities/bombers/detail/346"}}, {"type": "Feature", "geometry": {"type": "Point", "coordinates": [17.63512, 47.68333]}, "properties": {"name": "", "type": "Crashplace of Bomber", "label": "Gy\u00f6r: Crashplace of Bomber 6572", "geonames_id": "NONE", "self_link": "/entities/bombers/detail/347"}}, {"type": "Feature", "geometry": {"type": "Point", "coordinates": [19.03991, 47.49801]}, "properties": {"name": "", "type": "Crashplace of Bomber", "label": "Budapest: Crashplace of Bomber 6573", "geonames_id": "NONE", "self_link": "/entities/bombers/detail/348"}}, {"type": "Feature", "geometry": {"type": "Point", "coordinates": [16.46765, 48.29447]}, "properties": {"name": "", "type": "Crashplace of Bomber", "label": "Gerasdorf: Crashplace of Bomber 6587", "geonames_id": "NONE", "self_link": "/entities/bombers/detail/349"}}, {"type": "Feature", "geometry": {"type": "Point", "coordinates": [18.42147, 49.05178]}, "properties": {"name": "", "type": "Crashplace of Bomber", "label": "Dolny Lieskov: Crashplace of Bomber 6590", "geonames_id": "NONE", "self_link": "/entities/bombers/detail/350"}}, {"type": "Feature", "geometry": {"type": "Point", "coordinates": [17.8, 46.36667]}, "properties": {"name": "", "type": "Crashplace of Bomber", "label": "Kaposvar: Crashplace of Bomber 6591", "geonames_id": "NONE", "self_link": "/entities/bombers/detail/351"}}, {"type": "Feature", "geometry": {"type": "Point", "coordinates": [17.4674, 47.33004]}, "properties": {"name": "Mixed Nuts", "type": "Crashplace of Bomber", "label": "Papa: Crashplace of Bomber 6593", "geonames_id": "NONE", "self_link": "/entities/bombers/detail/352"}}, {"type": "Feature", "geometry": {"type": "Point", "coordinates": [16.52327, 47.84565]}, "properties": {"name": "", "type": "Crashplace of Bomber", "label": "Eisenstadt: Crashplace of Bomber 6595", "geonames_id": "NONE", "self_link": "/entities/bombers/detail/353"}}, {"type": "Feature", "geometry": {"type": "Point", "coordinates": [18.11913, 47.74318]}, "properties": {"name": "", "type": "Crashplace of Bomber", "label": "Komarom: Crashplace of Bomber 6617", "geonames_id": "NONE", "self_link": "/entities/bombers/detail/354"}}, {"type": "Feature", "geometry": {"type": "Point", "coordinates": [13.79933, 47.91839]}, "properties": {"name": "", "type": "Crashplace of Bomber", "label": "Gmunden: Crashplace of Bomber 6684", "geonames_id": "NONE", "self_link": "/entities/bombers/detail/355"}}, {"type": "Feature", "geometry": {"type": "Point", "coordinates": [13.779, 47.80716]}, "properties": {"name": "", "type": "Crashplace of Bomber", "label": "Ebensee: Crashplace of Bomber 6685", "geonames_id": "NONE", "self_link": "/entities/bombers/detail/356"}}, {"type": "Feature", "geometry": {"type": "Point", "coordinates": [16.84889, 45.89861]}, "properties": {"name": "", "type": "Crashplace of Bomber", "label": "Bjelovar: Crashplace of Bomber 6686", "geonames_id": "NONE", "self_link": "/entities/bombers/detail/357"}}, {"type": "Feature", "geometry": {"type": "Point", "coordinates": [19.03991, 47.49801]}, "properties": {"name": "Texas Knight", "type": "Crashplace of Bomber", "label": "Budapest: Crashplace of Bomber 6697", "geonames_id": "NONE", "self_link": "/entities/bombers/detail/358"}}, {"type": "Feature", "geometry": {"type": "Point", "coordinates": [19.03991, 47.49801]}, "properties": {"name": "", "type": "Crashplace of Bomber", "label": "Budapest Umgebung: Crashplace of Bomber 6698", "geonames_id": "NONE", "self_link": "/entities/bombers/detail/359"}}, {"type": "Feature", "geometry": {"type": "Point", "coordinates": [11.87139, 47.31139]}, "properties": {"name": "", "type": "Crashplace of Bomber", "label": "Zillertal: Crashplace of Bomber 6747", "geonames_id": "NONE", "self_link": "/entities/bombers/detail/360"}}, {"type": "Feature", "geometry": {"type": "Point", "coordinates": [19.03991, 47.49801]}, "properties": {"name": "", "type": "Crashplace of Bomber", "label": "Budapest: Crashplace of Bomber 6798", "geonames_id": "NONE", "self_link": "/entities/bombers/detail/361"}}, {"type": "Feature", "geometry": {"type": "Point", "coordinates": [19.03991, 47.49801]}, "properties": {"name": "", "type": "Crashplace of Bomber", "label": "Budapest: Crashplace of Bomber 6799", "geonames_id": "NONE", "self_link": "/entities/bombers/detail/362"}}, {"type": "Feature", "geometry": {"type": "Point", "coordinates": [19.03991, 47.49801]}, "properties": {"name": "", "type": "Crashplace of Bomber", "label": "Budapest Umgebung: Crashplace of Bomber 6801", "geonames_id": "NONE", "self_link": "/entities/bombers/detail/363"}}, {"type": "Feature", "geometry": {"type": "Point", "coordinates": [19.03991, 47.49801]}, "properties": {"name": "", "type": "Crashplace of Bomber", "label": "Budapest Umgebung: Crashplace of Bomber 6802", "geonames_id": "NONE", "self_link": "/entities/bombers/detail/364"}}, null, {"type": "Feature", "geometry": {"type": "Point", "coordinates": [17.75, 46.83333]}, "properties": {"name": "", "type": "Crashplace of Bomber", "label": "Balaton: Crashplace of Bomber 6809", "geonames_id": "NONE", "self_link": "/entities/bombers/detail/366"}}, {"type": "Feature", "geometry": {"type": "Point", "coordinates": [17.75, 46.83333]}, "properties": {"name": "", "type": "Crashplace of Bomber", "label": "Balaton: Crashplace of Bomber 6811", "geonames_id": "NONE", "self_link": "/entities/bombers/detail/367"}}, {"type": "Feature", "geometry": {"type": "Point", "coordinates": [15.63333, 48.2]}, "properties": {"name": "", "type": "Crashplace of Bomber", "label": "St. P\u00f6lten: Crashplace of Bomber 6812", "geonames_id": "NONE", "self_link": "/entities/bombers/detail/368"}}, {"type": "Feature", "geometry": {"type": "Point", "coordinates": [15.97798, 45.81444]}, "properties": {"name": "", "type": "Crashplace of Bomber", "label": "Zagreb: Crashplace of Bomber 6814", "geonames_id": "NONE", "self_link": "/entities/bombers/detail/369"}}, {"type": "Feature", "geometry": {"type": "Point", "coordinates": [17.75, 46.83333]}, "properties": {"name": "", "type": "Crashplace of Bomber", "label": "Balaton: Crashplace of Bomber 6815", "geonames_id": "NONE", "self_link": "/entities/bombers/detail/370"}}, {"type": "Feature", "geometry": {"type": "Point", "coordinates": [16.72016, 48.33925]}, "properties": {"name": "", "type": "Crashplace of Bomber", "label": "G\u00e4nserndorf: Crashplace of Bomber 6816", "geonames_id": "NONE", "self_link": "/entities/bombers/detail/371"}}, {"type": "Feature", "geometry": {"type": "Point", "coordinates": [16.94504, 48.14627]}, "properties": {"name": "", "type": "Crashplace of Bomber", "label": "Hainburg: Crashplace of Bomber 6819", "geonames_id": "NONE", "self_link": "/entities/bombers/detail/372"}}, {"type": "Feature", "geometry": {"type": "Point", "coordinates": [16.08333, 48.18333]}, "properties": {"name": "", "type": "Crashplace of Bomber", "label": "Pre\u00dfbaum: Crashplace of Bomber 6822", "geonames_id": "NONE", "self_link": "/entities/bombers/detail/373"}}, {"type": "Feature", "geometry": {"type": "Point", "coordinates": [19.0826, 47.4216]}, "properties": {"name": "Our Baby", "type": "Crashplace of Bomber", "label": "Budapest S\u00fcd: Crashplace of Bomber 6823", "geonames_id": "NONE", "self_link": "/entities/bombers/detail/374"}}, {"type": "Feature", "geometry": {"type": "Point", "coordinates": [19.03991, 47.49801]}, "properties": {"name": "", "type": "Crashplace of Bomber", "label": "Budapest: Crashplace of Bomber 6824", "geonames_id": "NONE", "self_link": "/entities/bombers/detail/375"}}, {"type": "Feature", "geometry": {"type": "Point", "coordinates": [16.37208, 48.20849]}, "properties": {"name": "", "type": "Crashplace of Bomber", "label": "Wien Umgebung: Crashplace of Bomber 6825", "geonames_id": "NONE", "self_link": "/entities/bombers/detail/376"}}, {"type": "Feature", "geometry": {"type": "Point", "coordinates": [12.19087, 48.10264]}, "properties": {"name": "", "type": "Crashplace of Bomber", "label": "Fischbach am Inn: Crashplace of Bomber 6828", "geonames_id": "NONE", "self_link": "/entities/bombers/detail/377"}}, {"type": "Feature", "geometry": {"type": "Point", "coordinates": [19.03991, 47.49801]}, "properties": {"name": "", "type": "Crashplace of Bomber", "label": "Budapest: Crashplace of Bomber 6858", "geonames_id": "NONE", "self_link": "/entities/bombers/detail/378"}}, {"type": "Feature", "geometry": {"type": "Point", "coordinates": [19.03991, 47.49801]}, "properties": {"name": "", "type": "Crashplace of Bomber", "label": "Budapest: Crashplace of Bomber 6859", "geonames_id": "NONE", "self_link": "/entities/bombers/detail/379"}}, {"type": "Feature", "geometry": {"type": "Point", "coordinates": [17.38393, 43.90174]}, "properties": {"name": "", "type": "Crashplace of Bomber", "label": "Gornje Vukovsko: Crashplace of Bomber 6864", "geonames_id": "NONE", "self_link": "/entities/bombers/detail/380"}}, {"type": "Feature", "geometry": {"type": "Point", "coordinates": [16.33778, 46.30444]}, "properties": {"name": "", "type": "Crashplace of Bomber", "label": "Varaszdin: Crashplace of Bomber 6866", "geonames_id": "NONE", "self_link": "/entities/bombers/detail/381"}}, {"type": "Feature", "geometry": {"type": "Point", "coordinates": [18.41034, 47.18995]}, "properties": {"name": "", "type": "Crashplace of Bomber", "label": "Szekesfehervar Umgebung: Crashplace of Bomber 6867", "geonames_id": "NONE", "self_link": "/entities/bombers/detail/382"}}, {"type": "Feature", "geometry": {"type": "Point", "coordinates": [18.41034, 47.18995]}, "properties": {"name": "", "type": "Crashplace of Bomber", "label": "Szekesfehervar: Crashplace of Bomber 6868", "geonames_id": "NONE", "self_link": "/entities/bombers/detail/383"}}, null, {"type": "Feature", "geometry": {"type": "Point", "coordinates": [16.62155, 47.23088]}, "properties": {"name": "", "type": "Crashplace of Bomber", "label": "Szombathely: Crashplace of Bomber 6898", "geonames_id": "NONE", "self_link": "/entities/bombers/detail/385"}}, {"type": "Feature", "geometry": {"type": "Point", "coordinates": [17.57806, 45.75389]}, "properties": {"name": "Lucky Bucky", "type": "Crashplace of Bomber", "label": "Cabuna: Crashplace of Bomber 6900", "geonames_id": "NONE", "self_link": "/entities/bombers/detail/386"}}, {"type": "Feature", "geometry": {"type": "Point", "coordinates": [18.99993, 46.80067]}, "properties": {"name": "Mizpah", "type": "Crashplace of Bomber", "label": "Solt: Crashplace of Bomber 6901", "geonames_id": "NONE", "self_link": "/entities/bombers/detail/387"}}, {"type": "Feature", "geometry": {"type": "Point", "coordinates": [16.5673, 45.36863]}, "properties": {"name": "", "type": "Crashplace of Bomber", "label": "Sunja: Crashplace of Bomber 6902", "geonames_id": "NONE", "self_link": "/entities/bombers/detail/388"}}, {"type": "Feature", "geometry": {"type": "Point", "coordinates": [16.97542, 47.87019]}, "properties": {"name": "", "type": "Crashplace of Bomber", "label": "Halbthurn: Crashplace of Bomber 6903", "geonames_id": "NONE", "self_link": "/entities/bombers/detail/389"}}, {"type": "Feature", "geometry": {"type": "Point", "coordinates": [16.59712, 48.18174]}, "properties": {"name": "", "type": "Crashplace of Bomber", "label": "Wittau: Crashplace of Bomber 6904", "geonames_id": "NONE", "self_link": "/entities/bombers/detail/390"}}, {"type": "Feature", "geometry": {"type": "Point", "coordinates": [17.03293, 47.77441]}, "properties": {"name": "", "type": "Crashplace of Bomber", "label": "Andau: Crashplace of Bomber 6905", "geonames_id": "NONE", "self_link": "/entities/bombers/detail/391"}}, {"type": "Feature", "geometry": {"type": "Point", "coordinates": [16.41984, 48.09923]}, "properties": {"name": "", "type": "Crashplace of Bomber", "label": "Maria Lanzendorf: Crashplace of Bomber 6906", "geonames_id": "NONE", "self_link": "/entities/bombers/detail/392"}}, {"type": "Feature", "geometry": {"type": "Point", "coordinates": [17.03293, 47.77441]}, "properties": {"name": "", "type": "Crashplace of Bomber", "label": "Andau: Crashplace of Bomber 6907", "geonames_id": "NONE", "self_link": "/entities/bombers/detail/393"}}, {"type": "Feature", "geometry": {"type": "Point", "coordinates": [14.31667, 47.1]}, "properties": {"name": "", "type": "Crashplace of Bomber", "label": "Lessach: Crashplace of Bomber 6910", "geonames_id": "NONE", "self_link": "/entities/bombers/detail/394"}}, {"type": "Feature", "geometry": {"type": "Point", "coordinates": [12.13333, 47.41667]}, "properties": {"name": "", "type": "Crashplace of Bomber", "label": "Kelchsau: Crashplace of Bomber 6913", "geonames_id": "NONE", "self_link": "/entities/bombers/detail/395"}},